ms_today,input_voltage,temp_mos_max,temp_mos_1,temp_mos_2,temp_mos_3,temp_motor,current_motor,current_in,d_axis_current,q_axis_current,erpm,duty_cycle,amp_hours_used,amp_hours_charged,watt_hours_used,watt_hours_charged,tachometer,tachometer_abs,encoder_position,fault_code,vesc_id,d_axis_voltage,q_axis_voltage,ms_today_setup,amp_hours_setup,amp_hours_charged_setup,watt_hours_setup,watt_hours_charged_setup,battery_level,battery_wh_tot,current_in_setup,current_motor_setup,speed_meters_per_sec,tacho_meters,tacho_abs_meters,num_vescs,ms_today_imu,roll,pitch,yaw,accX,accY,accZ,gyroX,gyroY,gyroZ,gnss_posTime,gnss_lat,gnss_lon,gnss_alt,gnss_gVel,gnss_vVel,gnss_hAcc,gnss_vAcc,
26230302,12.2,36,0,0,0,-75.9,0.08,0,-0.08,0.03,0,0,0.0973,0.0024,1.219,0.0307,283299,287089,270.003,0,89,0.016,0.013,26230277,0.0973,0.0024,1.219,0.0307,0.917,51.917,0,0.08,0,586.276,594.119,1,26230298,0.0131665,0.00529858,-2.37813,-0.00585938,-0.0136719,1.05371,-0.12207,-0.244141,-0.0610352,-1,0.00000000,0.00000000,0.00000000,0.00000000,0.00000000,0.00000000,0.00000000,
26230323,12.2,36,0,0,0,-75.7,0.1,0,-0.09,0.04,0,0,0.0973,0.0024,1.219,0.0307,283299,287089,270.042,0,89,0.015,0.012,26230303,0.0973,0.0024,1.219,0.0307,0.917,51.917,0,0.09,0,586.276,594.119,1,26230319,0.0123913,0.0068656,-2.37806,-0.0078125,-0.0166016,1.05273,-0.0610352,-0.183105,-0.12207,-1,0.00000000,0.00000000,0.00000000,0.00000000,0.00000000,0.00000000,0.00000000,
26230345,12.2,36,0,0,0,-75.5,0.09,0,-0.09,0.03,0,0,0.0973,0.0024,1.219,0.0307,283299,287089,270.017,0,89,0.014,0.012,26230326,0.0973,0.0024,1.219,0.0307,0.917,51.917,0,0.1,0,586.276,594.119,1,26230342,0.0111947,0.00707618,-2.37804,-0.0102539,-0.012207,1.05127,-0.244141,-0.305176,-0.12207,-1,0.00000000,0.00000000,0.00000000,0.00000000,0.00000000,0.00000000,0.00000000,
26230366,12.2,36,0,0,0,-75.3,0.08,0,-0.08,0.03,0,0,0.0973,0.0024,1.219,0.0307,283299,287089,270,0,89,0.015,0.012,26230348,0.0973,0.0024,1.219,0.0307,0.917,51.917,0,0.07,0,586.276,594.119,1,26230361,0.0118792,0.00926656,-2.37801,-0.0117188,-0.012207,1.0498,-0.244141,-0.183105,0,-1,0.00000000,0.00000000,0.00000000,0.00000000,0.00000000,0.00000000,0.00000000,
26230388,12.3,36,0,0,0,-75.5,0.09,0,-0.09,0.03,0,0,0.0973,0.0024,1.219,0.0307,283299,287089,270.022,0,89,0.014,0.011,26230369,0.0973,0.0024,1.219,0.0307,0.917,51.917,0,0.17,0,586.276,594.119,1,26230382,0.0125177,0.00744578,-2.37795,-0.00390625,-0.00927734,1.04004,-0.366211,-0.12207,-0.0610352,-1,0.00000000,0.00000000,0.00000000,0.00000000,0.00000000,0.00000000,0.00000000,
26230407,12.2,36,0,0,0,-75.6,0.07,0,-0.08,0.03,0,0,0.0973,0.0024,1.219,0.0307,283299,287089,270.023,0,89,0.015,0.012,26230390,0.0973,0.0024,1.219,0.0307,0.917,51.917,0,0.12,0,586.276,594.119,1,26230404,0.0118603,0.00852616,-2.37791,-0.00927734,-0.0126953,1.04541,-0.305176,-0.305176,-0.0610352,-1,0.00000000,0.00000000,0.00000000,0.00000000,0.00000000,0.00000000,0.00000000,
26230429,12.2,36,0,0,0,-75.4,0.09,0,-0.08,0.03,0,0,0.0973,0.0024,1.219,0.0307,283299,287089,270.006,0,89,0.015,0.012,26230410,0.0973,0.0024,1.219,0.0307,0.917,51.917,0,0.14,0,586.276,594.119,1,26230424,0.0112375,0.00928528,-2.37785,-0.00927734,-0.0136719,1.04395,-0.183105,-0.183105,-0.12207,-1,0.00000000,0.00000000,0.00000000,0.00000000,0.00000000,0.00000000,0.00000000,
26230450,12.2,36,0,0,0,-75.5,0.09,0,-0.1,0.03,0,0,0.0973,0.0024,1.219,0.0307,283299,287089,270.01,0,89,0.015,0.012,26230432,0.0973,0.0024,1.219,0.0307,0.917,51.917,0,0.15,0,586.276,594.119,1,26230446,0.0110422,0.0070259,-2.37785,-0.00683594,-0.012207,1.0542,-0.305176,-0.427246,-0.0610352,-1,0.00000000,0.00000000,0.00000000,0.00000000,0.00000000,0.00000000,0.00000000,
26230469,12.3,36,0,0,0,-75.5,0.1,0,-0.09,0.03,0,0,0.0973,0.0024,1.219,0.0307,283299,287089,270,0,89,0.014,0.012,26230452,0.0973,0.0024,1.219,0.0307,0.917,51.917,0,0.09,0,586.276,594.119,1,26230465,0.0112839,0.00518194,-2.37779,-0.00732422,-0.0146484,1.05371,-0.244141,-0.305176,-0.0610352,-1,0.00000000,0.00000000,0.00000000,0.00000000,0.00000000,0.00000000,0.00000000,
26230491,12.2,36,0,0,0,-75.3,0.07,0,-0.07,0.02,0,0,0.0973,0.0024,1.219,0.0307,283299,287089,270.028,0,89,0.015,0.012,26230472,0.0973,0.0024,1.219,0.0307,0.917,51.917,0,0.09,0,586.276,594.119,1,26230486,0.0117866,0.00554575,-2.37772,-0.0078125,-0.00732422,1.0459,-0.427246,-0.244141,-0.366211,-1,0.00000000,0.00000000,0.00000000,0.00000000,0.00000000,0.00000000,0.00000000,
26230509,12.2,36,0,0,0,-75.2,0.09,0,-0.09,0.03,0,0,0.0973,0.0024,1.219,0.0307,283299,287089,270.007,0,89,0.015,0.012,26230493,0.0973,0.0024,1.219,0.0307,0.917,51.917,0,0.02,0,586.276,594.119,1,26230507,0.0109207,0.00627695,-2.37771,-0.00732422,-0.00878906,1.04785,-0.427246,-0.183105,0,-1,0.00000000,0.00000000,0.00000000,0.00000000,0.00000000,0.00000000,0.00000000,
26230532,12.2,36,0,0,0,-75.2,0.08,0,-0.09,0.03,0,0,0.0973,0.0024,1.219,0.0307,283299,287089,270.003,0,89,0.015,0.013,26230511,0.0973,0.0024,1.219,0.0307,0.917,51.917,0,0.14,0,586.276,594.119,1,26230528,0.0129459,0.00611622,-2.37768,-0.00585938,-0.0141602,1.0415,0,-0.0610352,-0.0610352,-1,0.00000000,0.00000000,0.00000000,0.00000000,0.00000000,0.00000000,0.00000000,
26230553,12.2,36,0,0,0,-75.2,0.08,0,-0.09,0.03,0,0,0.0973,0.0024,1.219,0.0307,283299,287089,270.013,0,89,0.015,0.012,26230538,0.0973,0.0024,1.219,0.0307,0.917,51.916,0,0.11,0,586.276,594.119,1,26230550,0.0137678,0.00679721,-2.37763,-0.00683594,-0.0146484,1.0415,0,-0.12207,-0.12207,-1,0.00000000,0.00000000,0.00000000,0.00000000,0.00000000,0.00000000,0.00000000,
26230575,12.2,36,0,0,0,-75.1,0.08,0,-0.08,0.03,0,0,0.0973,0.0024,1.219,0.0307,283299,287089,270.016,0,89,0.015,0.012,26230560,0.0973,0.0024,1.219,0.0307,0.917,51.916,0,0.12,0,586.276,594.119,1,26230569,0.0131533,0.00636838,-2.37765,-0.00634766,-0.0141602,1.05273,-0.0610352,-0.244141,0,-1,0.00000000,0.00000000,0.00000000,0.00000000,0.00000000,0.00000000,0.00000000,
26230597,12.2,36,0,0,0,-75.3,0.07,0,-0.07,0.02,0,0,0.0973,0.0024,1.219,0.0307,283299,287089,270.057,0,89,0.015,0.012,26230576,0.0973,0.0024,1.219,0.0307,0.917,51.916,0,0.05,0,586.276,594.119,1,26230589,0.0118391,0.00612902,-2.37765,-0.00976563,-0.0112305,1.04443,-0.366211,-0.305176,0.12207,-1,0.00000000,0.00000000,0.00000000,0.00000000,0.00000000,0.00000000,0.00000000,
26230619,12.3,36,0,0,0,-75.5,0.08,0,-0.08,0.03,0,0,0.0973,0.0024,1.219,0.0307,283299,287089,270.004,0,89,0.015,0.011,26230597,0.0973,0.0024,1.219,0.0307,0.917,51.916,0,0.06,0,586.276,594.119,1,26230611,0.0119099,0.007314,-2.37759,-0.00927734,-0.0117188,1.05029,-0.549316,-0.366211,-0.244141,-1,0.00000000,0.00000000,0.00000000,0.00000000,0.00000000,0.00000000,0.00000000,
26230637,12.2,36,0,0,0,-75.4,0.09,0,-0.09,0.03,0,0,0.0973,0.0024,1.219,0.0307,283299,287089,270,0,89,0.015,0.012,26230619,0.0973,0.0024,1.219,0.0307,0.917,51.916,0,0.13,0,586.276,594.119,1,26230632,0.0123148,0.00777802,-2.37757,-0.00976563,-0.00878906,1.0376,-0.305176,-0.244141,-0.183105,-1,0.00000000,0.00000000,0.00000000,0.00000000,0.00000000,0.00000000,0.00000000,
26230657,12.2,36,0,0,0,-75.7,0.08,0,-0.08,0.03,0,0,0.0973,0.0024,1.219,0.0307,283299,287089,270.014,0,89,0.015,0.012,26230639,0.0973,0.0024,1.219,0.0307,0.917,51.916,0,0.14,0,586.276,594.119,1,26230653,0.0118249,0.0077007,-2.37755,-0.00878906,-0.0117188,1.03955,-0.183105,-0.12207,-0.12207,-1,0.00000000,0.00000000,0.00000000,0.00000000,0.00000000,0.00000000,0.00000000,
26230678,12.2,36,0,0,0,-75.7,0.09,0,-0.09,0.03,0,0,0.0973,0.0024,1.219,0.0307,283299,287089,270.022,0,89,0.015,0.012,26230659,0.0973,0.0024,1.219,0.0307,0.917,51.916,0,0.1,0,586.276,594.119,1,26230673,0.0118218,0.00631114,-2.3775,-0.00488281,-0.0141602,1.04834,0,-0.12207,0,-1,0.00000000,0.00000000,0.00000000,0.00000000,0.00000000,0.00000000,0.00000000,
26230698,12.2,36,0,0,0,-75.5,0.09,0,-0.08,0.03,0,0,0.0973,0.0024,1.219,0.0307,283299,287089,270,0,89,0.015,0.012,26230680,0.0973,0.0024,1.219,0.0307,0.917,51.916,0,0.16,0,586.276,594.119,1,26230697,0.0110503,0.00674613,-2.37746,-0.00927734,-0.0126953,1.05225,-0.12207,-0.427246,-0.0610352,-1,0.00000000,0.00000000,0.00000000,0.00000000,0.00000000,0.00000000,0.00000000,
26230719,12.3,36,0,0,0,-75.3,0.07,0,-0.07,0.02,0,0,0.0973,0.0024,1.219,0.0307,283299,287089,270.004,0,89,0.015,0.012,26230700,0.0973,0.0024,1.219,0.0307,0.917,51.916,0,0.11,0,586.276,594.119,1,26230719,0.0089784,0.00628031,-2.37746,-0.00878906,-0.00634766,1.04199,-0.427246,-0.244141,-0.12207,-1,0.00000000,0.00000000,0.00000000,0.00000000,0.00000000,0.00000000,0.00000000,
26230757,12.2,36,0,0,0,-75.1,0.08,0,-0.08,0.03,0,0,0.0973,0.0024,1.219,0.0307,283299,287089,270,0,89,0.015,0.012,26230722,0.0973,0.0024,1.219,0.0307,0.917,51.916,0,0.07,0,586.276,594.119,1,26230737,0.0104304,0.00631829,-2.37746,-0.00585938,-0.00878906,1.04004,-0.305176,0.0610352,0.0610352,-1,0.00000000,0.00000000,0.00000000,0.00000000,0.00000000,0.00000000,0.00000000,
26230768,12.2,36,0,0,0,-75.3,0.09,0,-0.09,0.02,0,0,0.0973,0.0024,1.219,0.0307,283299,287089,270.044,0,89,0.016,0.013,26230757,0.0973,0.0024,1.219,0.0307,0.917,51.916,0,0.14,0,586.276,594.119,1,26230764,0.0113504,0.00774953,-2.3774,-0.00830078,-0.0112305,1.04346,-0.183105,-0.305176,0,-1,0.00000000,0.00000000,0.00000000,0.00000000,0.00000000,0.00000000,0.00000000,
26230786,12.2,36,0,0,0,-75.3,0.07,0,-0.08,0.02,0,0,0.0973,0.0024,1.219,0.0307,283299,287089,270,0,89,0.015,0.011,26230770,0.0973,0.0024,1.219,0.0307,0.917,51.916,0,0.1,0,586.276,594.119,1,26230780,0.0120099,0.00649703,-2.37737,-0.00585938,-0.0112305,1.04004,-0.244141,-0.12207,0.12207,-1,0.00000000,0.00000000,0.00000000,0.00000000,0.00000000,0.00000000,0.00000000,
26230806,12.2,36,0,0,0,-75.2,0.08,0,-0.08,0.02,0,0,0.0973,0.0024,1.219,0.0307,283299,287089,270.025,0,89,0.015,0.012,26230788,0.0973,0.0024,1.219,0.0307,0.917,51.916,0,0.08,0,586.276,594.119,1,26230802,0.0125892,0.00614886,-2.37731,-0.00537109,-0.0141602,1.04199,-0.366211,-0.12207,-0.0610352,-1,0.00000000,0.00000000,0.00000000,0.00000000,0.00000000,0.00000000,0.00000000,
26230828,12.2,36,0,0,0,-75.1,0.08,0,-0.08,0.03,0,0,0.0973,0.0024,1.219,0.0307,283299,287089,270.017,0,89,0.015,0.012,26230809,0.0973,0.0024,1.219,0.0307,0.917,51.916,0,0.1,0,586.276,594.119,1,26230822,0.0129976,0.00680085,-2.37727,-0.00683594,-0.0141602,1.04834,-0.12207,-0.183105,-0.0610352,-1,0.00000000,0.00000000,0.00000000,0.00000000,0.00000000,0.00000000,0.00000000,
26230846,12.2,36,0,0,0,-75.1,0.08,0,-0.08,0.03,0,0,0.0973,0.0024,1.219,0.0307,283299,287089,270.026,0,89,0.015,0.012,26230830,0.0973,0.0024,1.219,0.0307,0.917,51.916,0,0.07,0,586.276,594.119,1,26230844,0.0119453,0.00746059,-2.37726,-0.00976563,-0.0131836,1.05078,-0.427246,-0.427246,-0.183105,-1,0.00000000,0.00000000,0.00000000,0.00000000,0.00000000,0.00000000,0.00000000,
26230870,12.2,36,0,0,0,-75.1,0.07,0,-0.08,0.02,0,0,0.0973,0.0024,1.219,0.0307,283299,287089,270.026,0,89,0.015,0.012,26230849,0.0973,0.0024,1.219,0.0307,0.917,51.916,0,0.08,0,586.276,594.119,1,26230864,0.0126098,0.00538931,-2.3772,-0.00585938,-0.0131836,1.05225,-0.366211,-0.427246,-0.244141,-1,0.00000000,0.00000000,0.00000000,0.00000000,0.00000000,0.00000000,0.00000000,
26230890,12.2,36,0,0,0,-75.2,0.07,0,-0.08,0.02,0,0,0.0973,0.0024,1.219,0.0307,283299,287089,270,0,89,0.015,0.012,26230872,0.0973,0.0024,1.219,0.0307,0.917,51.916,0,0.13,0,586.276,594.119,1,26230886,0.0141609,0.00703585,-2.37715,-0.0078125,-0.0146484,1.03955,-0.366211,-0.12207,-0.0610352,-1,0.00000000,0.00000000,0.00000000,0.00000000,0.00000000,0.00000000,0.00000000,
26230910,12.2,36,0,0,0,-75.1,0.09,0,-0.09,0.03,0,0,0.0973,0.0024,1.219,0.0307,283299,287089,270.007,0,89,0.015,0.012,26230892,0.0973,0.0024,1.219,0.0307,0.917,51.916,0,0.21,0,586.276,594.119,1,26230905,0.0122692,0.00645341,-2.3771,-0.00683594,-0.00927734,1.04199,-0.183105,-0.12207,0,-1,0.00000000,0.00000000,0.00000000,0.00000000,0.00000000,0.00000000,0.00000000,
26230931,12.2,36,0,0,0,-75.1,0.08,0,-0.08,0.03,0,0,0.0973,0.0024,1.219,0.0307,283299,287089,270.02,0,89,0.015,0.012,26230913,0.0973,0.0024,1.219,0.0307,0.917,51.916,0,0.09,0,586.276,594.119,1,26230927,0.0114826,0.00618781,-2.37706,-0.00585938,-0.012207,1.04492,-0.12207,-0.0610352,0,-1,0.00000000,0.00000000,0.00000000,0.00000000,0.00000000,0.00000000,0.00000000,
26230951,12.2,36,0,0,0,-75.2,0.08,0,-0.08,0.03,0,0,0.0973,0.0024,1.219,0.0307,283299,287089,270.014,0,89,0.015,0.012,26230933,0.0973,0.0024,1.219,0.0307,0.917,51.916,0,0.05,0,586.276,594.119,1,26230948,0.0109649,0.00653004,-2.37702,-0.00830078,-0.0136719,1.05225,-0.12207,-0.183105,-0.12207,-1,0.00000000,0.00000000,0.00000000,0.00000000,0.00000000,0.00000000,0.00000000,
26230972,12.2,36,0,0,0,-75.2,0.08,0,-0.09,0.03,0,0,0.0973,0.0024,1.219,0.0307,283299,287089,270.008,0,89,0.015,0.012,26230953,0.0973,0.0024,1.219,0.0307,0.917,51.916,0,0.01,0,586.276,594.119,1,26230967,0.0116555,0.00742771,-2.37702,-0.00683594,-0.0117188,1.05322,-0.183105,-0.305176,-0.0610352,-1,0.00000000,0.00000000,0.00000000,0.00000000,0.00000000,0.00000000,0.00000000,
26230993,12.2,36,0,0,0,-75.3,0.09,0,-0.08,0.03,0,0,0.0973,0.0024,1.219,0.0307,283299,287089,270.032,0,89,0.015,0.012,26230977,0.0973,0.0024,1.219,0.0307,0.917,51.916,0,0.05,0,586.276,594.119,1,26230989,0.0118125,0.00668037,-2.37701,-0.0078125,-0.00976563,1.04346,-0.366211,-0.366211,0,-1,0.00000000,0.00000000,0.00000000,0.00000000,0.00000000,0.00000000,0.00000000,
26231011,12.3,36,0,0,0,-75.3,0.08,0,-0.08,0.02,0,0,0.0973,0.0024,1.219,0.0307,283299,287089,270.017,0,89,0.015,0.012,26230998,0.0973,0.0024,1.219,0.0307,0.917,51.916,0,0.06,0,586.276,594.119,1,26231008,0.0108589,0.00727143,-2.37694,-0.0078125,-0.00927734,1.04443,-0.305176,-0.183105,-0.12207,-1,0.00000000,0.00000000,0.00000000,0.00000000,0.00000000,0.00000000,0.00000000,
26231038,12.2,36.1,0,0,0,-75.3,0.07,0,-0.07,0.02,0,0,0.0973,0.0024,1.219,0.0307,283299,287089,270.008,0,89,0.016,0.012,26231017,0.0973,0.0024,1.219,0.0307,0.917,51.916,0,0.11,0,586.276,594.119,1,26231037,0.00941806,0.00706948,-2.37689,-0.00732422,-0.00976563,1.04004,-0.0610352,-0.244141,-0.183105,-1,0.00000000,0.00000000,0.00000000,0.00000000,0.00000000,0.00000000,0.00000000,
26231056,12.3,36,0,0,0,-75.2,0.08,0,-0.08,0.02,0,0,0.0973,0.0024,1.219,0.0307,283299,287089,270.007,0,89,0.015,0.012,26231038,0.0973,0.0024,1.219,0.0307,0.917,51.916,0,0.05,0,586.276,594.119,1,26231050,0.0105359,0.00670863,-2.37685,-0.00634766,-0.0112305,1.04541,-0.183105,-0.12207,0,-1,0.00000000,0.00000000,0.00000000,0.00000000,0.00000000,0.00000000,0.00000000,
26231076,12.2,36,0,0,0,-75.3,0.08,0,-0.08,0.03,0,0,0.0973,0.0024,1.219,0.0307,283299,287089,270.018,0,89,0.015,0.012,26231058,0.0973,0.0024,1.219,0.0307,0.917,51.916,0,0.03,0,586.276,594.119,1,26231070,0.0105345,0.00722434,-2.37681,-0.00683594,-0.0161133,1.04883,-0.12207,-0.366211,-0.12207,-1,0.00000000,0.00000000,0.00000000,0.00000000,0.00000000,0.00000000,0.00000000,
26231097,12.2,36.1,0,0,0,-75.3,0.09,0,-0.09,0.03,0,0,0.0973,0.0024,1.219,0.0307,283299,287089,270.037,0,89,0.015,0.012,26231079,0.0973,0.0024,1.219,0.0307,0.917,51.916,0,0.09,0,586.276,594.119,1,26231092,0.0128393,0.00781779,-2.37678,-0.00878906,-0.0136719,1.04883,-0.427246,-0.366211,-0.12207,-1,0.00000000,0.00000000,0.00000000,0.00000000,0.00000000,0.00000000,0.00000000,
26231117,12.2,36.1,0,0,0,-75.1,0.09,0,-0.09,0.03,0,0,0.0973,0.0024,1.219,0.0307,283299,287089,270.025,0,89,0.015,0.012,26231099,0.0973,0.0024,1.219,0.0307,0.917,51.916,0,0.12,0,586.276,594.119,1,26231113,0.0131268,0.00876228,-2.37676,-0.00976563,-0.0136719,1.05566,-0.305176,-0.244141,-0.12207,-1,0.00000000,0.00000000,0.00000000,0.00000000,0.00000000,0.00000000,0.00000000,
26231138,12.2,36.1,0,0,0,-74.9,0.09,0,-0.09,0.03,0,0,0.0973,0.0024,1.219,0.0307,283299,287089,270,0,89,0.016,0.012,26231119,0.0973,0.0024,1.219,0.0307,0.917,51.916,0,0.05,0,586.276,594.119,1,26231138,0.0127523,0.00749852,-2.3767,-0.0078125,-0.00927734,1.03809,-0.305176,-0.12207,-0.244141,-1,0.00000000,0.00000000,0.00000000,0.00000000,0.00000000,0.00000000,0.00000000,
26231158,12.2,36.1,0,0,0,-74.9,0.08,0,-0.08,0.03,0,0,0.0973,0.0024,1.219,0.0307,283299,287089,270.019,0,89,0.015,0.012,26231140,0.0973,0.0024,1.219,0.0307,0.917,51.916,0,0.08,0,586.276,594.119,1,26231158,0.0131257,0.00879173,-2.37668,-0.00927734,-0.0136719,1.05078,0.0610352,-0.183105,-0.183105,-1,0.00000000,0.00000000,0.00000000,0.00000000,0.00000000,0.00000000,0.00000000,
26231180,12.2,36,0,0,0,-75,0.09,0,-0.09,0.03,0,0,0.0973,0.0024,1.219,0.0307,283299,287089,270.026,0,89,0.015,0.012,26231159,0.0973,0.0024,1.219,0.0307,0.917,51.916,0,0.09,0,586.276,594.119,1,26231177,0.0113862,0.00807262,-2.37667,-0.00732422,-0.012207,1.0459,0.183105,-0.366211,-0.0610352,-1,0.00000000,0.00000000,0.00000000,0.00000000,0.00000000,0.00000000,0.00000000,
26231205,12.3,36,0,0,0,-74.9,0.08,0,-0.08,0.03,0,0,0.0973,0.0024,1.219,0.0307,283299,287089,270.033,0,89,0.015,0.012,26231182,0.0973,0.0024,1.219,0.0307,0.917,51.916,0,0.14,0,586.276,594.119,1,26231200,0.0123709,0.00699036,-2.37665,-0.00634766,-0.0141602,1.04346,-0.305176,-0.244141,-0.244141,-1,0.00000000,0.00000000,0.00000000,0.00000000,0.00000000,0.00000000,0.00000000,
26231225,12.3,36,0,0,0,-75,0.09,0,-0.09,0.03,0,0,0.0973,0.0024,1.219,0.0307,283299,287089,270.031,0,89,0.016,0.012,26231207,0.0973,0.0024,1.219,0.0307,0.917,51.917,0,0.11,0,586.276,594.119,1,26231220,0.012157,0.00763476,-2.37663,-0.00830078,-0.0141602,1.05371,-0.244141,-0.366211,-0.0610352,-1,0.00000000,0.00000000,0.00000000,0.00000000,0.00000000,0.00000000,0.00000000,
26231264,12.2,36,0,0,0,-74.9,0.07,0,-0.08,0.02,0,0,0.0973,0.0024,1.219,0.0307,283299,287089,270.031,0,89,0.015,0.012,26231226,0.0973,0.0024,1.219,0.0307,0.917,51.917,0,0,0,586.276,594.119,1,26231261,0.0125482,0.00651938,-2.37659,-0.00585938,-0.0102539,1.04102,-0.12207,-0.244141,0.0610352,-1,0.00000000,0.00000000,0.00000000,0.00000000,0.00000000,0.00000000,0.00000000,
26231284,12.2,36,0,0,0,-74.7,0.07,0,-0.07,0.02,0,0,0.0973,0.0024,1.219,0.0307,283299,287089,270.013,0,89,0.015,0.012,26231267,0.0973,0.0024,1.219,0.0307,0.917,51.916,0,0.18,0,586.276,594.119,1,26231280,0.0121577,0.00623557,-2.37658,-0.00634766,-0.0141602,1.04932,-0.0610352,-0.12207,0,-1,0.00000000,0.00000000,0.00000000,0.00000000,0.00000000,0.00000000,0.00000000,
26231306,12.2,36,0,0,0,-74.8,0.09,0,-0.09,0.03,0,0,0.0973,0.0024,1.219,0.0307,283299,287089,270.028,0,89,0.015,0.013,26231286,0.0973,0.0024,1.219,0.0307,0.917,51.916,0,0.12,0,586.276,594.119,1,26231301,0.0127217,0.00848825,-2.3765,-0.00878906,-0.0131836,1.04688,-0.183105,-0.12207,-0.244141,-1,0.00000000,0.00000000,0.00000000,0.00000000,0.00000000,0.00000000,0.00000000,
26231326,12.2,36.1,0,0,0,-74.8,0.09,0,-0.09,0.03,0,0,0.0973,0.0024,1.219,0.0307,283299,287089,270.012,0,89,0.015,0.012,26231308,0.0973,0.0024,1.219,0.0307,0.917,51.917,0,0.08,0,586.276,594.119,1,26231321,0.0121851,0.00848923,-2.37651,-0.00830078,-0.012207,1.05469,-0.244141,-0.183105,0.12207,-1,0.00000000,0.00000000,0.00000000,0.00000000,0.00000000,0.00000000,0.00000000,
26231345,12.2,36,0,0,0,-74.9,0.08,0,-0.08,0.02,0,0,0.0973,0.0024,1.219,0.0307,283299,287089,270.067,0,89,0.015,0.012,26231328,0.0973,0.0024,1.219,0.0307,0.917,51.917,0,0.22,0,586.276,594.119,1,26231342,0.0119984,0.00679834,-2.37647,-0.00732422,-0.0131836,1.05176,-0.244141,-0.427246,-0.183105,-1,0.00000000,0.00000000,0.00000000,0.00000000,0.00000000,0.00000000,0.00000000,
26231367,12.2,36,0,0,0,-74.7,0.08,0,-0.08,0.02,0,0,0.0973,0.0024,1.219,0.0307,283299,287089,270.02,0,89,0.015,0.012,26231348,0.0973,0.0024,1.219,0.0307,0.917,51.917,0,0.07,0,586.276,594.119,1,26231362,0.011955,0.00634755,-2.37648,-0.00878906,-0.00976563,1.04541,-0.488281,-0.305176,-0.0610352,-1,0.00000000,0.00000000,0.00000000,0.00000000,0.00000000,0.00000000,0.00000000,
26231387,12.2,36,0,0,0,-74.9,0.08,0,-0.08,0.03,0,0,0.0973,0.0024,1.219,0.0307,283299,287089,270.031,0,89,0.015,0.012,26231369,0.0973,0.0024,1.219,0.0307,0.917,51.917,0,0.05,0,586.276,594.119,1,26231385,0.0125149,0.00648534,-2.3764,-0.00585938,-0.012207,1.04395,-0.12207,-0.12207,0,-1,0.00000000,0.00000000,0.00000000,0.00000000,0.00000000,0.00000000,0.00000000,
26231406,12.2,36.1,0,0,0,-75.1,0.08,0,-0.08,0.03,0,0,0.0973,0.0024,1.219,0.0307,283299,287089,270.002,0,89,0.015,0.012,26231389,0.0973,0.0024,1.219,0.0307,0.917,51.917,0,0.09,0,586.276,594.119,1,26231403,0.0108558,0.0074087,-2.37632,-0.00683594,-0.00927734,1.0376,-0.305176,-0.12207,-0.0610352,-1,0.00000000,0.00000000,0.00000000,0.00000000,0.00000000,0.00000000,0.00000000,
26231429,12.2,36,0,0,0,-74.9,0.09,0,-0.09,0.03,0,0,0.0973,0.0024,1.219,0.0307,283299,287089,270.035,0,89,0.016,0.012,26231411,0.0973,0.0024,1.219,0.0307,0.917,51.917,0,0.16,0,586.276,594.119,1,26231425,0.0104464,0.00819159,-2.37628,-0.00927734,-0.0126953,1.05225,-0.0610352,-0.12207,-0.183105,-1,0.00000000,0.00000000,0.00000000,0.00000000,0.00000000,0.00000000,0.00000000,
26231449,12.3,36.1,0,0,0,-75.1,0.09,0,-0.09,0.03,0,0,0.0973,0.0024,1.219,0.0307,283299,287089,270.004,0,89,0.015,0.012,26231432,0.0973,0.0024,1.219,0.0307,0.917,51.917,0,0.09,0,586.276,594.119,1,26231446,0.0116734,0.00586576,-2.37622,-0.00244141,-0.0136719,1.0498,-0.183105,-0.183105,-0.0610352,-1,0.00000000,0.00000000,0.00000000,0.00000000,0.00000000,0.00000000,0.00000000,
26231472,12.2,36.1,0,0,0,-75,0.08,0,-0.08,0.02,0,0,0.0973,0.0024,1.219,0.0307,283299,287089,270.016,0,89,0.015,0.012,26231452,0.0973,0.0024,1.219,0.0307,0.917,51.917,0,0.13,0,586.276,594.119,1,26231466,0.0105023,0.00666156,-2.37624,-0.00976563,-0.0112305,1.04736,-0.305176,-0.183105,0,-1,0.00000000,0.00000000,0.00000000,0.00000000,0.00000000,0.00000000,0.00000000,
26231492,12.2,36.1,0,0,0,-75.3,0.07,0,-0.07,0.02,0,0,0.0973,0.0024,1.219,0.0307,283299,287089,270.032,0,89,0.016,0.013,26231477,0.0973,0.0024,1.219,0.0307,0.917,51.917,0,0.04,0,586.276,594.119,1,26231489,0.0109765,0.00646187,-2.3762,-0.00585938,-0.00927734,1.04053,-0.427246,-0.366211,-0.12207,-1,0.00000000,0.00000000,0.00000000,0.00000000,0.00000000,0.00000000,0.00000000,
26231512,12.2,36.1,0,0,0,-75.5,0.08,0,-0.08,0.03,0,0,0.0973,0.0024,1.219,0.0307,283299,287089,270.003,0,89,0.016,0.012,26231499,0.0973,0.0024,1.219,0.0307,0.917,51.917,0,0.06,0,586.276,594.119,1,26231508,0.0118068,0.00851429,-2.37613,-0.00878906,-0.0078125,1.04395,-0.305176,-0.0610352,-0.12207,-1,0.00000000,0.00000000,0.00000000,0.00000000,0.00000000,0.00000000,0.00000000,
26231535,12.3,36.1,0,0,0,-75.5,0.09,0,-0.1,0.03,0,0,0.0973,0.0024,1.219,0.0307,283299,287089,270.045,0,89,0.015,0.012,26231519,0.0973,0.0024,1.219,0.0307,0.917,51.917,0,0.1,0,586.276,594.119,1,26231529,0.0125376,0.00877583,-2.37613,-0.00585938,-0.0131836,1.04297,-0.12207,-0.244141,0.0610352,-1,0.00000000,0.00000000,0.00000000,0.00000000,0.00000000,0.00000000,0.00000000,
26231557,12.2,36.1,0,0,0,-75.3,0.08,0,-0.08,0.03,0,0,0.0973,0.0024,1.219,0.0307,283299,287089,270.022,0,89,0.015,0.012,26231537,0.0973,0.0024,1.219,0.0307,0.917,51.917,0,0.09,0,586.276,594.119,1,26231550,0.0125788,0.00747401,-2.37616,-0.0078125,-0.015625,1.0498,-0.183105,-0.305176,0.0610352,-1,0.00000000,0.00000000,0.00000000,0.00000000,0.00000000,0.00000000,0.00000000,
26231578,12.2,36.1,0,0,0,-75.4,0.08,0,-0.08,0.03,0,0,0.0973,0.0024,1.219,0.0307,283299,287089,270.019,0,89,0.015,0.012,26231558,0.0973,0.0024,1.219,0.0307,0.917,51.917,0,0.1,0,586.276,594.119,1,26231570,0.011785,0.00830636,-2.37613,-0.00976563,-0.0161133,1.05322,-0.244141,-0.183105,-0.0610352,-1,0.00000000,0.00000000,0.00000000,0.00000000,0.00000000,0.00000000,0.00000000,
26231598,12.2,36.1,0,0,0,-75.5,0.08,0,-0.09,0.03,0,0,0.0973,0.0024,1.219,0.0307,283299,287089,270.004,0,89,0.015,0.012,26231579,0.0973,0.0024,1.219,0.0307,0.917,51.918,0,-0.02,0,586.276,594.119,1,26231593,0.0123787,0.00818099,-2.3761,-0.00830078,-0.0102539,1.04346,-0.305176,-0.244141,-0.183105,-1,0.00000000,0.00000000,0.00000000,0.00000000,0.00000000,0.00000000,0.00000000,
26231619,12.2,36.1,0,0,0,-75.5,0.08,0,-0.08,0.03,0,0,0.0973,0.0024,1.219,0.0307,283299,287089,270,0,89,0.015,0.011,26231600,0.0973,0.0024,1.219,0.0307,0.917,51.918,0,0.08,0,586.276,594.119,1,26231613,0.0119588,0.00728693,-2.37606,-0.00878906,-0.0102539,1.04443,-0.427246,-0.244141,-0.12207,-1,0.00000000,0.00000000,0.00000000,0.00000000,0.00000000,0.00000000,0.00000000,
26231639,12.2,36.1,0,0,0,-75.4,0.08,0,-0.08,0.02,0,0,0.0973,0.0024,1.219,0.0307,283299,287089,270.03,0,89,0.015,0.012,26231621,0.0973,0.0024,1.219,0.0307,0.917,51.918,0,0.03,0,586.276,594.119,1,26231637,0.0135305,0.00932548,-2.37602,-0.00927734,-0.0131836,1.03809,-0.366211,-0.183105,-0.12207,-1,0.00000000,0.00000000,0.00000000,0.00000000,0.00000000,0.00000000,0.00000000,
26231658,12.2,36.1,0,0,0,-75.4,0.08,0,-0.08,0.03,0,0,0.0973,0.0024,1.219,0.0307,283299,287089,270.007,0,89,0.014,0.011,26231641,0.0973,0.0024,1.219,0.0307,0.917,51.918,0,0.1,0,586.276,594.119,1,26231658,0.0113149,0.00669685,-2.37599,-0.00683594,-0.00976563,1.03662,-0.244141,-0.244141,-0.183105,-1,0.00000000,0.00000000,0.00000000,0.00000000,0.00000000,0.00000000,0.00000000,
26231680,12.2,36.1,0,0,0,-75.2,0.08,0,-0.08,0.02,0,0,0.0973,0.0024,1.219,0.0307,283299,287089,270.034,0,89,0.015,0.012,26231660,0.0973,0.0024,1.219,0.0307,0.917,51.918,0,0.16,0,586.276,594.119,1,26231677,0.0129851,0.00757621,-2.37594,-0.00732422,-0.0161133,1.05322,-0.12207,-0.244141,-0.12207,-1,0.00000000,0.00000000,0.00000000,0.00000000,0.00000000,0.00000000,0.00000000,
26231699,12.2,36.1,0,0,0,-75.3,0.06,0,-0.07,0.02,0,0,0.0973,0.0024,1.219,0.0307,283299,287089,270,0,89,0.014,0.011,26231682,0.0973,0.0024,1.219,0.0307,0.917,51.918,0,0.1,0,586.276,594.119,1,26231697,0.0106344,0.00669216,-2.37593,-0.00732422,-0.0102539,1.05127,-0.244141,-0.305176,0,-1,0.00000000,0.00000000,0.00000000,0.00000000,0.00000000,0.00000000,0.00000000,
26231719,12.3,36.1,0,0,0,-75.3,0.08,0,-0.07,0.03,0,0,0.0973,0.0024,1.219,0.0307,283299,287089,270.017,0,89,0.015,0.012,26231702,0.0973,0.0024,1.219,0.0307,0.917,51.919,0,0.11,0,586.276,594.119,1,26231717,0.0108255,0.00658762,-2.37588,-0.00927734,-0.0117188,1.05371,-0.488281,-0.305176,-0.12207,-1,0.00000000,0.00000000,0.00000000,0.00000000,0.00000000,0.00000000,0.00000000,
26231758,12.3,36.1,0,0,0,-75.5,0.08,0,-0.08,0.03,0,0,0.0973,0.0024,1.219,0.0307,283299,287089,270.002,0,89,0.015,0.012,26231722,0.0973,0.0024,1.219,0.0307,0.917,51.919,0,0.06,0,586.276,594.119,1,26231756,0.0117,0.00789805,-2.37587,-0.0078125,-0.0146484,1.0498,-0.0610352,-0.183105,-0.0610352,-1,0.00000000,0.00000000,0.00000000,0.00000000,0.00000000,0.00000000,0.00000000,
26231776,12.2,36.1,0,0,0,-75.7,0.07,0,-0.08,0.03,0,0,0.0973,0.0024,1.219,0.0307,283299,287089,270.06,0,89,0.015,0.012,26231760,0.0973,0.0024,1.219,0.0307,0.917,51.919,0,0.1,0,586.276,594.119,1,26231773,0.011586,0.0076716,-2.37583,-0.0107422,-0.0126953,1.05225,-0.305176,-0.366211,0,-1,0.00000000,0.00000000,0.00000000,0.00000000,0.00000000,0.00000000,0.00000000,
26231799,12.3,36.1,0,0,0,-75.8,0.09,0,-0.09,0.03,0,0,0.0973,0.0024,1.219,0.0307,283299,287089,270.022,0,89,0.015,0.012,26231778,0.0973,0.0024,1.219,0.0307,0.917,51.919,0,0.09,0,586.276,594.119,1,26231792,0.0119178,0.00796094,-2.37575,-0.0078125,-0.012207,1.05176,-0.366211,-0.305176,0,-1,0.00000000,0.00000000,0.00000000,0.00000000,0.00000000,0.00000000,0.00000000,
26231819,12.3,36.1,0,0,0,-75.6,0.08,0,-0.08,0.03,0,0,0.0973,0.0024,1.219,0.0307,283299,287089,270.023,0,89,0.015,0.012,26231803,0.0973,0.0024,1.219,0.0307,0.917,51.919,0,0.11,0,586.276,594.119,1,26231819,0.0116884,0.00670731,-2.37572,-0.0078125,-0.00927734,1.04053,-0.427246,-0.305176,-0.12207,-1,0.00000000,0.00000000,0.00000000,0.00000000,0.00000000,0.00000000,0.00000000,
26231838,12.2,36.1,0,0,0,-75.4,0.09,0,-0.08,0.03,0,0,0.0973,0.0024,1.219,0.0307,283299,287089,270.024,0,89,0.015,0.012,26231821,0.0973,0.0024,1.219,0.0307,0.917,51.919,0,0.16,0,586.276,594.119,1,26231837,0.0113685,0.00704628,-2.37565,-0.00732422,-0.00927734,1.04541,-0.427246,-0.183105,-0.12207,-1,0.00000000,0.00000000,0.00000000,0.00000000,0.00000000,0.00000000,0.00000000,
26231860,12.2,36.1,0,0,0,-75.3,0.09,0,-0.09,0.03,0,0,0.0973,0.0024,1.219,0.0307,283299,287089,270,0,89,0.016,0.012,26231840,0.0973,0.0024,1.219,0.0307,0.917,51.919,0,0.17,0,586.276,594.119,1,26231858,0.0137656,0.00727155,-2.37561,-0.0078125,-0.0146484,1.04199,-0.0610352,-0.305176,-0.12207,-1,0.00000000,0.00000000,0.00000000,0.00000000,0.00000000,0.00000000,0.00000000,
26231882,12.2,36.1,0,0,0,-75.5,3,0.04,0.27,3.03,5,0.024,0.0973,0.0024,1.219,0.0307,283299,287089,273.488,0,89,0.007,0.045,26231862,0.0973,0.0024,1.219,0.0307,0.917,51.919,0,0.08,0,586.276,594.119,1,26231877,0.0127689,0.00655646,-2.37555,-0.00537109,-0.0141602,1.0542,-0.244141,-0.244141,-0.244141,-1,0.00000000,0.00000000,0.00000000,0.00000000,0.00000000,0.00000000,0.00000000,
26231904,12.2,36.1,0,0,0,-75.4,4.86,0.07,0.02,4.87,21,0.021,0.0973,0.0024,1.219,0.0307,283299,287089,284.794,0,89,-0.035,0.065,26231885,0.0973,0.0024,1.219,0.0307,0.917,51.92,0.07,4.73,0.001,586.276,594.119,1,26231900,0.011737,0.00696493,-2.3755,-0.00878906,-0.0126953,1.04932,-0.305176,-0.427246,-0.12207,-1,0.00000000,0.00000000,0.00000000,0.00000000,0.00000000,0.00000000,0.00000000,
26231925,12.2,36.1,0,0,0,-75.5,4.77,0.06,-0.41,4.75,21,0.02,0.0973,0.0024,1.219,0.0307,283299,287089,287.832,0,89,0,0.044,26231908,0.0973,0.0024,1.219,0.0307,0.917,51.92,0.07,4.93,0.004,586.276,594.119,1,26231920,0.0105373,0.00696916,-2.37546,-0.0117188,-0.0141602,1.05566,-0.671387,-0.244141,0,-1,0.00000000,0.00000000,0.00000000,0.00000000,0.00000000,0.00000000,0.00000000,
26231946,12.2,36.1,0,0,0,-75.5,4.78,0.06,-0.03,4.78,-2,0.02,0.0973,0.0024,1.219,0.0307,283299,287089,286.034,0,89,0.033,0.045,26231929,0.0973,0.0024,1.219,0.0307,0.917,51.92,0.06,4.74,0.004,586.276,594.119,1,26231941,0.0101273,0.00682759,-2.37547,0.00146484,-0.0185547,1.03516,-0.671387,-0.12207,-0.12207,-1,0.00000000,0.00000000,0.00000000,0.00000000,0.00000000,0.00000000,0.00000000,
26231967,12.2,36.1,0,0,0,-75.5,4.81,0.06,0.1,4.81,-6,0.019,0.0973,0.0024,1.219,0.0307,283299,287089,282.744,0,89,0.028,0.046,26231950,0.0973,0.0024,1.219,0.0307,0.917,51.92,0.06,4.86,0,586.276,594.119,1,26231961,0.0132131,0.00764723,-2.37539,-0.00976563,-0.0239258,1.05615,0.427246,-0.183105,0,-1,0.00000000,0.00000000,0.00000000,0.00000000,0.00000000,0.00000000,0.00000000,
26231987,12.2,36.1,0,0,0,-75.7,4.81,0.06,0.06,4.81,0,0.019,0.0973,0.0024,1.219,0.0307,283299,287089,282.209,0,89,0.015,0.048,26231971,0.0973,0.0024,1.219,0.0307,0.917,51.92,0.06,4.84,-0.001,586.276,594.119,1,26231982,0.011429,0.00597519,-2.3754,-0.00341797,-0.0126953,1.03613,0.488281,-0.0610352,-0.0610352,-1,0.00000000,0.00000000,0.00000000,0.00000000,0.00000000,0.00000000,0.00000000,
26232010,12.2,36.1,0,0,0,-75.6,4.43,0.06,0.06,4.54,98,0.024,0.0973,0.0024,1.2191,0.0307,283300,287090,346.38,0,89,0.011,0.046,26231990,0.0973,0.0024,1.2191,0.0307,0.917,51.92,0.06,4.79,0,586.276,594.119,1,26232003,0.00863229,0.00499211,-2.37535,-0.00292969,-0.00732422,1.04834,0.12207,0.183105,0,-1,0.00000000,0.00000000,0.00000000,0.00000000,0.00000000,0.00000000,0.00000000,
26232030,12.2,36.1,0,0,0,-75.6,4.67,0.08,0.33,4.67,94,0.024,0.0973,0.0024,1.2191,0.0307,283300,287090,356.32,0,89,-0.047,0.064,26232018,0.0973,0.0024,1.2191,0.0307,0.917,51.92,0.08,4.31,0.019,586.278,594.121,1,26232024,0.00834964,0.00566624,-2.37536,-0.00488281,-0.0112305,1.04492,-0.488281,0,0.0610352,-1,0.00000000,0.00000000,0.00000000,0.00000000,0.00000000,0.00000000,0.00000000,
26232051,12.3,36.1,0,0,0,-75.7,2.17,0.05,-0.4,4.89,10,0.017,0.0973,0.0024,1.2191,0.0307,283300,287090,359.979,0,89,-0.052,0.007,26232038,0.0973,0.0024,1.2191,0.0307,0.917,51.92,0.07,5.1,0.019,586.278,594.121,1,26232045,0.00721347,0.00708917,-2.37528,-0.012207,-0.00927734,1.04834,-1.15967,-0.366211,-0.305176,-1,0.00000000,0.00000000,0.00000000,0.00000000,0.00000000,0.00000000,0.00000000,
26232072,12.2,36.1,0,0,0,-75.7,4.55,0.06,-0.48,4.6,22,0.022,0.0973,0.0024,1.2191,0.0307,283300,287090,9.59964,0,89,0.024,0.03,26232058,0.0973,0.0024,1.2191,0.0307,0.917,51.921,0.05,4.38,0.002,586.278,594.121,1,26232066,0.00936834,0.00660452,-2.37528,-0.00537109,-0.015625,1.05029,-0.732422,0.12207,0.0610352,-1,0.00000000,0.00000000,0.00000000,0.00000000,0.00000000,0.00000000,0.00000000,
26232095,12.2,36.1,0,0,0,-75.8,4.85,0.06,0.12,4.86,32,0.018,0.0973,0.0024,1.2191,0.0307,283301,287091,19.098,0,89,0.043,0.021,26232078,0.0973,0.0024,1.2191,0.0307,0.917,51.921,0.06,4.95,0.004,586.278,594.121,1,26232087,0.0126189,0.00760506,-2.37521,-0.00830078,-0.0205078,1.05957,-0.0610352,-0.0610352,0.0610352,-1,0.00000000,0.00000000,0.00000000,0.00000000,0.00000000,0.00000000,0.00000000,
26232119,12.2,36.1,0,0,0,-75.6,4.44,0.06,0.69,4.54,37,0.022,0.0973,0.0024,1.2191,0.0307,283301,287091,25.9071,0,89,0,0.023,26232098,0.0973,0.0024,1.2191,0.0307,0.917,51.921,0.05,4.6,0.007,586.28,594.123,1,26232105,0.0153395,0.00947943,-2.37511,-0.0112305,-0.0170898,1.05566,0.610352,-0.549316,-0.183105,-1,0.00000000,0.00000000,0.00000000,0.00000000,0.00000000,0.00000000,0.00000000,
26232137,12.2,36.1,0,0,0,-75.8,4.74,0.07,0.06,4.77,43,0.021,0.0973,0.0024,1.2191,0.0307,283301,287091,35.1957,0,89,-0.043,0.027,26232119,0.0973,0.0024,1.2191,0.0307,0.917,51.921,0.07,4.74,0.008,586.28,594.123,1,26232127,0.0143167,0.00741449,-2.37511,-0.00585938,-0.0141602,1.05029,0.305176,-0.305176,-0.0610352,-1,0.00000000,0.00000000,0.00000000,0.00000000,0.00000000,0.00000000,0.00000000,
26232158,12.3,36.1,0,0,0,-75.7,4.02,0.06,-0.33,4.69,30,0.02,0.0973,0.0024,1.2191,0.0307,283301,287091,42.2195,0,89,-0.027,0.013,26232139,0.0973,0.0024,1.2191,0.0307,0.917,51.921,0.06,4.83,0.009,586.28,594.123,1,26232150,0.0112804,0.00630915,-2.37505,0.00341797,0.000488281,1.03174,-0.488281,-0.244141,-0.366211,-1,0.00000000,0.00000000,0.00000000,0.00000000,0.00000000,0.00000000,0.00000000,
26232178,12.2,36.1,0,0,0,-75.7,4.7,0.06,0.28,4.69,-5,0.021,0.0973,0.0024,1.2191,0.0307,283302,287092,78.3758,0,89,-0.023,0.028,26232158,0.0973,0.0024,1.2191,0.0307,0.917,51.921,0.07,5.09,0.019,586.282,594.125,1,26232169,0.00992432,0.0052177,-2.375,-0.00292969,-0.0102539,1.0459,-0.854492,-0.183105,-0.305176,-1,0.00000000,0.00000000,0.00000000,0.00000000,0.00000000,0.00000000,0.00000000,
26232199,12.2,36.1,0,0,0,-75.6,4.8,0.06,-0.38,4.81,-50,0.021,0.0973,0.0024,1.2191,0.0307,283301,287093,47.6851,0,89,-0.028,0.021,26232178,0.0973,0.0024,1.2191,0.0307,0.917,51.922,0.07,4.93,-0.001,586.282,594.125,1,26232191,0.0116932,0.00578804,-2.37499,-0.00488281,-0.0131836,1.03906,-0.915527,0.12207,-0.183105,-1,0.00000000,0.00000000,0.00000000,0.00000000,0.00000000,0.00000000,0.00000000,
26232220,12.2,36.1,0,0,0,-75.6,4.81,0.07,-0.26,4.8,0,0.023,0.0973,0.0024,1.2191,0.0307,283301,287093,44.5925,0,89,0.028,0.037,26232203,0.0973,0.0024,1.2191,0.0307,0.917,51.922,0.07,4.65,-0.01,586.28,594.128,1,26232212,0.0146181,0.0066336,-2.37493,-0.00634766,-0.0170898,1.05029,-0.0610352,-0.0610352,-0.244141,-1,0.00000000,0.00000000,0.00000000,0.00000000,0.00000000,0.00000000,0.00000000,
26232257,12.3,36.1,0,0,0,-75.7,4.94,0.07,0.17,4.93,-47,0.019,0.0973,0.0024,1.2191,0.0307,283300,287094,9.63278,0,89,0.02,0.027,26232220,0.0973,0.0024,1.2191,0.0307,0.917,51.922,0.08,5,0,586.28,594.128,1,26232252,0.0149857,0.00594319,-2.37488,0.000976563,-0.00976563,1.05225,0.793457,0.305176,-0.12207,-1,0.00000000,0.00000000,0.00000000,0.00000000,0.00000000,0.00000000,0.00000000,
26232278,12.2,36.1,0,0,0,-75.5,4.82,0.07,-0.37,4.82,-49,0.022,0.0973,0.0024,1.2191,0.0307,283300,287094,2.7796,0,89,0.021,0.03,26232265,0.0973,0.0024,1.2191,0.0307,0.917,51.923,0.07,4.9,-0.009,586.278,594.13,1,26232269,0.0115657,0.00621267,-2.37483,-0.00830078,0.00195313,1.03418,0.244141,0.12207,-0.183105,-1,0.00000000,0.00000000,0.00000000,0.00000000,0.00000000,0.00000000,0.00000000,
26232300,12.2,36.1,0,0,0,-75.3,4.91,0.07,-0.04,4.91,-31,0.021,0.0973,0.0024,1.2191,0.0307,283300,287095,59.9359,0,89,0.038,0.033,26232280,0.0973,0.0024,1.2191,0.0307,0.917,51.923,0.07,4.94,-0.008,586.278,594.13,1,26232290,0.008787,0.00587398,-2.37484,-0.00292969,-0.00292969,1.03223,-1.28174,0.12207,-0.0610352,-1,0.00000000,0.00000000,0.00000000,0.00000000,0.00000000,0.00000000,0.00000000,
26232319,12.2,36.1,0,0,0,-75.4,4.34,0.07,0.45,4.4,70,0.027,0.0973,0.0024,1.2191,0.0307,283301,287095,69.0528,0,89,-0.028,0.045,26232301,0.0973,0.0024,1.2191,0.0307,0.917,51.923,0.06,4.81,0.014,586.28,594.132,1,26232311,0.00880628,0.00642267,-2.37482,-0.00390625,-0.00927734,1.04004,-1.70898,-0.305176,-0.0610352,-1,0.00000000,0.00000000,0.00000000,0.00000000,0.00000000,0.00000000,0.00000000,
26232339,12.2,36.1,0,0,0,-75.6,5.07,0.07,0.45,5.05,72,0.022,0.0973,0.0024,1.2191,0.0307,283302,287096,78.9563,0,89,-0.093,0.043,26232322,0.0973,0.0024,1.2191,0.0307,0.917,51.923,0.09,5.06,0.014,586.28,594.132,1,26232332,0.0120107,0.0081455,-2.37469,-0.015625,-0.0244141,1.06104,-0.732422,-0.976563,-0.183105,-1,0.00000000,0.00000000,0.00000000,0.00000000,0.00000000,0.00000000,0.00000000,
26232358,12.3,36.1,0,0,0,-75.5,4.53,0.06,-0.77,4.48,72,0.019,0.0973,0.0024,1.2191,0.0307,283302,287096,87.6987,0,89,-0.012,0.023,26232341,0.0973,0.0024,1.2191,0.0307,0.917,51.924,0.06,4.53,0.014,586.282,594.134,1,26232351,0.0143589,0.00714013,-2.37461,-0.00585938,-0.015625,1.05225,0.366211,-1.09863,-0.366211,-1,0.00000000,0.00000000,0.00000000,0.00000000,0.00000000,0.00000000,0.00000000,
26232379,12.2,36.1,0,0,0,-75.5,4.59,0.06,0.2,4.6,73,0.02,0.0973,0.0024,1.2191,0.0307,283302,287096,97.3598,0,89,0.006,0.023,26232362,0.0973,0.0024,1.2191,0.0307,0.917,51.924,0.06,4.77,0.014,586.282,594.134,1,26232372,0.0133456,0.00914836,-2.37458,-0.0112305,-0.0146484,1.05615,0.305176,-1.28174,-0.244141,-1,0.00000000,0.00000000,0.00000000,0.00000000,0.00000000,0.00000000,0.00000000,
26232401,12.2,36.1,0,0,0,-75.4,4.57,0.07,0.08,4.57,74,0.021,0.0973,0.0024,1.2192,0.0307,283302,287096,107.004,0,89,-0.045,0.04,26232383,0.0973,0.0024,1.2191,0.0307,0.917,51.924,0.06,4.48,0.015,586.282,594.134,1,26232396,0.0151913,0.00677244,-2.37455,-0.00585938,-0.0327148,1.0752,1.46484,-0.244141,0,-1,0.00000000,0.00000000,0.00000000,0.00000000,0.00000000,0.00000000,0.00000000,
26232422,12.2,36.1,0,0,0,-75.4,4.67,0.06,-0.18,4.66,73,0.02,0.0973,0.0024,1.2192,0.0307,283302,287096,116.807,0,89,-0.04,0.037,26232406,0.0973,0.0024,1.2192,0.0307,0.917,51.925,0.07,4.68,0.015,586.282,594.134,1,26232421,0.0131754,0.0056855,-2.37455,0,-0.00292969,1.03809,0.915527,-0.427246,-0.0610352,-1,0.00000000,0.00000000,0.00000000,0.00000000,0.00000000,0.00000000,0.00000000,
26232443,12.3,36.1,0,0,0,-75.4,4.64,0.06,-0.01,4.64,72,0.019,0.0973,0.0024,1.2192,0.0307,283302,287096,125.86,0,89,-0.04,0.039,26232426,0.0973,0.0024,1.2192,0.0307,0.917,51.925,0.06,4.7,0.015,586.282,594.134,1,26232438,0.0101916,0.00440104,-2.37455,-0.00244141,-0.0078125,1.0249,-0.488281,0.0610352,-0.183105,-1,0.00000000,0.00000000,0.00000000,0.00000000,0.00000000,0.00000000,0.00000000,
26232463,12.3,36.1,0,0,0,-75.7,4.29,0.06,0.06,4.28,164,0.025,0.0973,0.0024,1.2192,0.0307,283304,287098,195.099,0,89,-0.038,0.062,26232449,0.0973,0.0024,1.2192,0.0307,0.917,51.925,0.06,4.6,0.015,586.282,594.134,1,26232458,0.0105845,0.00404074,-2.37448,-0.00634766,-0.0195313,1.04834,-0.793457,1.0376,-0.12207,-1,0.00000000,0.00000000,0.00000000,0.00000000,0.00000000,0.00000000,0.00000000,
26232487,12.2,36.1,0,0,0,-75.7,3.98,0.09,-0.17,3.93,348,0.032,0.0973,0.0024,1.2192,0.0307,283306,287100,344.878,0,89,0.01,0.128,26232466,0.0973,0.0024,1.2192,0.0307,0.917,51.926,0.07,3.87,0.038,586.286,594.138,1,26232481,0.0130532,0.0058748,-2.37443,-0.00439453,-0.0219727,1.04736,-0.305176,0.549316,-0.183105,-1,0.00000000,0.00000000,0.00000000,0.00000000,0.00000000,0.00000000,0.00000000,
26232506,12.2,36.1,0,0,0,-75.8,4.25,0.09,-0.1,4.23,341,0.027,0.0973,0.0024,1.2192,0.0307,283307,287101,15.6934,0,89,0.035,0.083,26232490,0.0973,0.0024,1.2192,0.0307,0.917,51.926,0.1,4.46,0.073,586.29,594.142,1,26232499,0.0127906,0.00963356,-2.37439,-0.0234375,-0.015625,1.05029,-0.366211,0.366211,-0.0610352,-1,0.00000000,0.00000000,0.00000000,0.00000000,0.00000000,0.00000000,0.00000000,
26232527,12.2,36.1,0,0,0,-75.6,3.66,0.09,0.33,3.64,351,0.035,0.0973,0.0024,1.2192,0.0307,283307,287101,66.7984,0,89,0.001,0.108,26232511,0.0973,0.0024,1.2192,0.0307,0.917,51.926,0.07,3.6,0.07,586.293,594.144,1,26232521,0.0118768,0.0100034,-2.37436,-0.0244141,-0.0195313,1.03271,-1.0376,-1.2207,-0.244141,-1,0.00000000,0.00000000,0.00000000,0.00000000,0.00000000,0.00000000,0.00000000,
26232547,12.3,36.1,0,0,0,-75.6,3.81,0.1,-0.16,3.73,491,0.038,0.0973,0.0024,1.2192,0.0307,283310,287104,203.46,0,89,-0.034,0.16,26232532,0.0973,0.0024,1.2192,0.0307,0.917,51.926,0.1,3.97,0.074,586.295,594.146,1,26232542,0.0141792,0.0104164,-2.37437,-0.0170898,-0.0292969,1.05762,-0.976563,-1.58691,0.12207,-1,0.00000000,0.00000000,0.00000000,0.00000000,0.00000000,0.00000000,0.00000000,
26232569,12.2,36.1,0,0,0,-75.6,3.49,0.09,-0.21,3.4,559,0.041,0.0973,0.0024,1.2192,0.0307,283311,287105,310.82,0,89,0.077,0.174,26232549,0.0973,0.0024,1.2192,0.0307,0.917,51.926,0.1,3.96,0.106,586.299,594.15,1,26232563,0.0142987,0.00738593,-2.37431,-0.000488281,-0.00927734,1.04053,0.244141,-1.09863,-0.183105,-1,0.00000000,0.00000000,0.00000000,0.00000000,0.00000000,0.00000000,0.00000000,
26232589,12.2,36.1,0,0,0,-75.5,3.39,0.11,0.52,3.35,604,0.042,0.0973,0.0024,1.2192,0.0307,283313,287107,49.133,0,89,0.013,0.182,26232572,0.0973,0.0024,1.2192,0.0307,0.917,51.926,0.1,3.32,0.117,586.303,594.154,1,26232584,0.014218,0.00787966,-2.37432,0.00634766,-0.00292969,1.02539,0.12207,-0.488281,0.12207,-1,0.00000000,0.00000000,0.00000000,0.00000000,0.00000000,0.00000000,0.00000000,
26232611,12.2,36.1,0,0,0,-75.6,3.52,0.1,-0.63,3.23,786,0.041,0.0973,0.0024,1.2192,0.0307,283316,287110,247.586,0,89,-0.022,0.199,26232593,0.0973,0.0024,1.2192,0.0307,0.917,51.926,0.11,3.68,0.126,586.305,594.157,1,26232605,0.0123993,0.00635794,-2.3743,-0.000488281,-0.00488281,1.06934,-0.0610352,-0.427246,-0.12207,-1,0.00000000,0.00000000,0.00000000,0.00000000,0.00000000,0.00000000,0.00000000,
26232632,12.2,36.1,0,0,0,-75.5,2.66,0.08,0.24,2.54,832,0.048,0.0973,0.0024,1.2192,0.0307,283318,287112,11.5583,0,89,0.081,0.218,26232617,0.0973,0.0024,1.2192,0.0307,0.917,51.926,0.08,3.1,0.165,586.313,594.165,1,26232626,0.0114464,0.00701858,-2.37429,-0.0112305,-0.0126953,1.05225,-0.549316,0.488281,0.12207,-1,0.00000000,0.00000000,0.00000000,0.00000000,0.00000000,0.00000000,0.00000000,
26232654,12.2,36.1,0,0,0,-75.4,2.9,0.1,0.1,2.74,958,0.047,0.0973,0.0024,1.2192,0.0307,283322,287116,209.471,0,89,-0.02,0.232,26232637,0.0973,0.0024,1.2192,0.0307,0.917,51.926,0.1,2.93,0.173,586.317,594.169,1,26232649,0.0119018,0.00643082,-2.37419,-0.0166016,-0.0170898,1.05762,-0.305176,0.732422,-0.305176,-1,0.00000000,0.00000000,0.00000000,0.00000000,0.00000000,0.00000000,0.00000000,
26232677,12.2,36.1,0,0,0,-75.4,2.56,0.08,-0.03,2.39,1016,0.047,0.0973,0.0024,1.2192,0.0307,283324,287118,6.742,0,89,0.066,0.246,26232657,0.0973,0.0024,1.2192,0.0307,0.917,51.926,0.08,3,0.202,586.324,594.175,1,26232668,0.0125894,0.00733717,-2.37422,-0.00537109,-0.00390625,1.03125,-0.183105,0.793457,0.0610352,-1,0.00000000,0.00000000,0.00000000,0.00000000,0.00000000,0.00000000,0.00000000,
26232697,12.2,36.1,0,0,0,-75.4,2.53,0.08,0.09,2.3,1127,0.047,0.0973,0.0024,1.2192,0.0307,283328,287122,204.225,0,89,-0.03,0.245,26232679,0.0973,0.0024,1.2192,0.0307,0.917,51.927,0.09,2.42,0.211,586.33,594.181,1,26232690,0.0123904,0.00679667,-2.37414,-0.0205078,-0.0209961,1.05127,0.488281,0.244141,-0.12207,-1,0.00000000,0.00000000,0.00000000,0.00000000,0.00000000,0.00000000,0.00000000,
26232719,12.2,36.1,0,0,0,-75.3,2.34,0.07,-0.12,2.1,1162,0.045,0.0973,0.0024,1.2192,0.0307,283330,287124,2.00845,0,89,0.073,0.249,26232699,0.0973,0.0024,1.2192,0.0307,0.917,51.927,0.07,2.97,0.238,586.336,594.188,1,26232708,0.011318,0.00869455,-2.37409,-0.00878906,-0.000488281,1.0332,0.427246,-0.549316,-0.183105,-1,0.00000000,0.00000000,0.00000000,0.00000000,0.00000000,0.00000000,0.00000000,
26232738,12.3,36.1,0,0,0,-75.4,2.12,0.06,0.37,1.96,1220,0.046,0.0973,0.0024,1.2193,0.0307,283333,287127,175.382,0,89,-0.034,0.236,26232721,0.0973,0.0024,1.2192,0.0307,0.917,51.927,0.09,2.21,0.24,586.342,594.194,1,26232729,0.00963613,0.010245,-2.37411,-0.0107422,-0.00830078,1.04736,-0.244141,-0.976563,0.0610352,-1,0.00000000,0.00000000,0.00000000,0.00000000,0.00000000,0.00000000,0.00000000,
26232772,12.2,36.1,0,0,0,-75.3,2.1,0.06,0.08,1.85,1260,0.044,0.0973,0.0024,1.2193,0.0307,283338,287132,107.382,0,89,0.03,0.243,26232758,0.0973,0.0024,1.2193,0.0307,0.917,51.927,0.06,2.53,0.259,586.348,594.2,1,26232765,0.00920681,0.0074439,-2.37403,-0.00488281,-0.00341797,1.02539,-0.793457,-1.34277,-0.0610352,-1,0.00000000,0.00000000,0.00000000,0.00000000,0.00000000,0.00000000,0.00000000,
26232789,12.3,36.1,0,0,0,-75.2,2.08,0.05,-0.95,1.7,1331,0.042,0.0973,0.0024,1.2193,0.0307,283341,287135,288.392,0,89,0.052,0.256,26232778,0.0973,0.0024,1.2193,0.0307,0.917,51.927,0.03,1.64,0.267,586.359,594.21,1,26232782,0.0103509,0.0056822,-2.37398,0.000488281,-0.015625,1.05859,-0.244141,-0.976563,-0.244141,-1,0.00000000,0.00000000,0.00000000,0.00000000,0.00000000,0.00000000,0.00000000,
26232807,12.3,36.1,0,0,0,-75.1,1.7,0.05,0.71,1.53,1316,0.043,0.0973,0.0024,1.2193,0.0307,283343,287137,64.6407,0,89,0.02,0.241,26232793,0.0973,0.0024,1.2193,0.0307,0.917,51.927,0.05,1.69,0.274,586.365,594.217,1,26232802,0.0125264,0.00507064,-2.37387,0.000976563,-0.0141602,1.04883,0.183105,-0.366211,-0.183105,-1,0.00000000,0.00000000,0.00000000,0.00000000,0.00000000,0.00000000,0.00000000,
26232827,12.3,36.1,0,0,0,-75.1,1.98,0.05,-0.63,1.6,1396,0.042,0.0973,0.0024,1.2193,0.0307,283347,287141,281.442,0,89,0.02,0.253,26232812,0.0973,0.0024,1.2193,0.0307,0.917,51.927,0.05,1.83,0.273,586.369,594.221,1,26232823,0.0130971,0.00173945,-2.37384,-0.000488281,-0.0141602,1.05273,0.366211,0,0,-1,0.00000000,0.00000000,0.00000000,0.00000000,0.00000000,0.00000000,0.00000000,
26232853,12.2,36.1,0,0,0,-75.1,1.65,0.04,0.75,1.44,1382,0.044,0.0973,0.0024,1.2193,0.0307,283350,287144,117.435,0,89,0.003,0.249,26232832,0.0973,0.0024,1.2193,0.0307,0.917,51.928,0.04,1.6,0.286,586.375,594.227,1,26232845,0.00996767,0.00247181,-2.37384,-0.00195313,-0.00341797,1.03516,0,0.366211,-0.244141,-1,0.00000000,0.00000000,0.00000000,0.00000000,0.00000000,0.00000000,0.00000000,
26232872,12.2,36.1,0,0,0,-75.3,1.89,0.04,-0.79,1.36,1437,0.043,0.0973,0.0024,1.2193,0.0307,283353,287147,312.29,0,89,0.056,0.267,26232857,0.0973,0.0024,1.2193,0.0307,0.917,51.928,0.05,2.22,0.294,586.384,594.235,1,26232866,0.0109154,0.00447413,-2.37382,-0.00878906,-0.0136719,1.06152,-0.12207,0.732422,-0.0610352,-1,0.00000000,0.00000000,0.00000000,0.00000000,0.00000000,0.00000000,0.00000000,
26232892,12.2,36.1,0,0,0,-75.3,1.6,0.04,0.64,1.36,1447,0.044,0.0973,0.0024,1.2193,0.0307,283357,287151,151.171,0,89,-0.019,0.248,26232877,0.0973,0.0024,1.2193,0.0307,0.917,51.928,0.05,1.58,0.297,586.39,594.241,1,26232886,0.0112406,0.0060582,-2.37376,-0.00585938,-0.0112305,1.04297,-0.366211,0.488281,-0.0610352,-1,0.00000000,0.00000000,0.00000000,0.00000000,0.00000000,0.00000000,0.00000000,
26232911,12.2,36.1,0,0,0,-75.4,1.88,0.04,-0.71,1.27,1474,0.042,0.0973,0.0024,1.2193,0.0307,283360,287154,321.642,0,89,0.075,0.263,26232897,0.0973,0.0024,1.2193,0.0307,0.917,51.928,0.03,2.11,0.303,586.396,594.248,1,26232904,0.0120216,0.00960919,-2.3737,-0.0141602,-0.0136719,1.03809,-0.366211,-0.427246,-0.183105,-1,0.00000000,0.00000000,0.00000000,0.00000000,0.00000000,0.00000000,0.00000000,
26232932,12.2,36.1,0,0,0,-75.3,1.49,0.04,0.53,1.28,1471,0.043,0.0973,0.0024,1.2193,0.0307,283363,287157,156.752,0,89,-0.018,0.244,26232919,0.0973,0.0024,1.2193,0.0307,0.917,51.929,0.04,1.39,0.304,586.402,594.254,1,26232926,0.0141403,0.00949885,-2.37361,-0.0175781,-0.0170898,1.06348,0.305176,-0.549316,-0.0610352,-1,0.00000000,0.00000000,0.00000000,0.00000000,0.00000000,0.00000000,0.00000000,
26232953,12.3,36.1,0,0,0,-75.4,1.69,0.03,-0.49,1.22,1486,0.042,0.0973,0.0024,1.2193,0.0307,283366,287160,344.364,0,89,0.067,0.26,26232939,0.0973,0.0024,1.2193,0.0307,0.917,51.929,0.03,2.14,0.31,586.411,594.262,1,26232947,0.0133467,0.0083978,-2.3736,-0.0136719,-0.0141602,1.06836,0.244141,-1.15967,-0.0610352,-1,0.00000000,0.00000000,0.00000000,0.00000000,0.00000000,0.00000000,0.00000000,
26232973,12.3,36.1,0,0,0,-75.4,1.49,0.03,0.44,1.24,1492,0.043,0.0973,0.0024,1.2193,0.0307,283369,287163,166.969,0,89,-0.03,0.239,26232958,0.0973,0.0024,1.2193,0.0307,0.917,51.929,0.04,1.44,0.306,586.415,594.266,1,26232968,0.0113786,0.00751746,-2.37359,-0.00683594,-0.00830078,1.03467,-0.0610352,-0.915527,-0.12207,-1,0.00000000,0.00000000,0.00000000,0.00000000,0.00000000,0.00000000,0.00000000,
26232995,12.3,36.1,0,0,0,-75.5,1.7,0.03,-0.4,1.23,1487,0.041,0.0973,0.0024,1.2193,0.0307,283372,287166,356.992,0,89,0.072,0.251,26232978,0.0973,0.0024,1.2193,0.0307,0.917,51.929,0.03,2.41,0.313,586.423,594.274,1,26232989,0.00955393,0.00625587,-2.37353,-0.00683594,-0.0102539,1.0498,-0.427246,-0.671387,-0.183105,-1,0.00000000,0.00000000,0.00000000,0.00000000,0.00000000,0.00000000,0.00000000,
26233018,12.2,36.1,0,0,0,-75.6,1.54,0.03,0.18,1.21,1505,0.042,0.0973,0.0024,1.2193,0.0307,283376,287170,198.946,0,89,-0.026,0.235,26233000,0.0973,0.0024,1.2193,0.0307,0.917,51.93,0.03,1.24,0.305,586.429,594.281,1,26233009,0.0117848,0.00603457,-2.37352,-0.00634766,-0.0161133,1.05371,-0.244141,-0.549316,0,-1,0.00000000,0.00000000,0.00000000,0.00000000,0.00000000,0.00000000,0.00000000,
26233038,12.2,36.1,0,0,0,-75.6,1.59,0.03,-0.05,1.24,1472,0.041,0.0973,0.0024,1.2193,0.0307,283379,287173,20.2785,0,89,0.068,0.244,26233020,0.0973,0.0024,1.2193,0.0307,0.917,51.93,0.04,2.25,0.313,586.435,594.287,1,26233032,0.0124302,0.00512518,-2.37344,-0.00683594,-0.0166016,1.05225,-0.366211,0.183105,-0.183105,-1,0.00000000,0.00000000,0.00000000,0.00000000,0.00000000,0.00000000,0.00000000,
26233058,12.2,36.1,0,0,0,-75.7,1.55,0.03,-0.04,1.2,1504,0.043,0.0973,0.0024,1.2193,0.0307,283382,287176,216.335,0,89,-0.024,0.24,26233042,0.0973,0.0024,1.2193,0.0307,0.917,51.93,0.03,1.21,0.303,586.442,594.293,1,26233051,0.0119846,0.00474613,-2.37341,-0.00634766,-0.0112305,1.04834,-0.12207,0.183105,-0.366211,-1,0.00000000,0.00000000,0.00000000,0.00000000,0.00000000,0.00000000,0.00000000,
26233077,12.3,36.1,0,0,0,-76,1.58,0.04,-0.01,1.26,1479,0.042,0.0973,0.0024,1.2193,0.0307,283384,287178,6.97195,0,89,0.072,0.251,26233060,0.0973,0.0024,1.2193,0.0307,0.917,51.931,0.04,1.93,0.312,586.448,594.299,1,26233071,0.0123508,0.00572273,-2.37341,-0.00537109,-0.0117188,1.03564,-0.12207,0.244141,-0.0610352,-1,0.00000000,0.00000000,0.00000000,0.00000000,0.00000000,0.00000000,0.00000000,
26233099,12.2,36.1,0,0,0,-76.1,1.57,0.03,-0.04,1.17,1516,0.043,0.0973,0.0024,1.2193,0.0307,283388,287182,216.497,0,89,-0.021,0.246,26233081,0.0973,0.0024,1.2193,0.0307,0.917,51.931,0.03,1.17,0.304,586.454,594.306,1,26233092,0.0106661,0.00899792,-2.37339,-0.0102539,-0.0107422,1.05664,-0.12207,0.427246,-0.366211,-1,0.00000000,0.00000000,0.00000000,0.00000000,0.00000000,0.00000000,0.00000000,
26233119,12.3,36.1,0,0,0,-76.1,1.54,0.04,0.11,1.24,1487,0.042,0.0973,0.0024,1.2193,0.0307,283391,287185,17.0777,0,89,0.069,0.254,26233104,0.0973,0.0024,1.2193,0.0307,0.917,51.931,0.03,1.75,0.315,586.462,594.314,1,26233112,0.0111921,0.0103913,-2.37335,-0.012207,-0.00585938,1.05615,-0.366211,-0.305176,-0.244141,-1,0.00000000,0.00000000,0.00000000,0.00000000,0.00000000,0.00000000,0.00000000,
26233139,12.2,36.1,0,0,0,-75.9,1.63,0.03,-0.25,1.21,1533,0.043,0.0973,0.0024,1.2193,0.0307,283394,287188,240.23,0,89,-0.012,0.25,26233123,0.0973,0.0024,1.2193,0.0307,0.917,51.931,0.04,1.68,0.305,586.466,594.318,1,26233137,0.0119022,0.0122087,-2.37332,-0.0126953,-0.012207,1.04346,-0.671387,-0.610352,-0.12207,-1,0.00000000,0.00000000,0.00000000,0.00000000,0.00000000,0.00000000,0.00000000,
26233161,12.3,36.1,0,0,0,-75.9,1.41,0.03,0.32,1.18,1486,0.042,0.0973,0.0024,1.2193,0.0307,283397,287191,39.5006,0,89,0.054,0.248,26233143,0.0973,0.0024,1.2193,0.0307,0.917,51.932,0.04,1.74,0.317,586.475,594.326,1,26233158,0.0127332,0.00878839,-2.37329,-0.00830078,-0.0136719,1.04932,-0.854492,-0.915527,-0.183105,-1,0.00000000,0.00000000,0.00000000,0.00000000,0.00000000,0.00000000,0.00000000,
26233181,12.3,36.1,0,0,0,-75.8,1.68,0.03,-0.36,1.22,1533,0.042,0.0973,0.0024,1.2193,0.0307,283400,287194,240.805,0,89,-0.012,0.248,26233165,0.0973,0.0024,1.2193,0.0307,0.917,51.932,0.03,1.83,0.305,586.479,594.33,1,26233177,0.0134663,0.0077382,-2.37327,-0.00683594,-0.012207,1.03711,-0.732422,-1.15967,-0.12207,-1,0.00000000,0.00000000,0.00000000,0.00000000,0.00000000,0.00000000,0.00000000,
26233201,12.2,36.1,0,0,0,-75.8,1.42,0.03,0.36,1.18,1481,0.041,0.0973,0.0024,1.2193,0.0307,283403,287197,32.1374,0,89,0.056,0.242,26233186,0.0973,0.0024,1.2193,0.0307,0.917,51.932,0.04,1.46,0.316,586.487,594.339,1,26233197,0.0135883,0.00758198,-2.37318,-0.0131836,-0.0126953,1.04492,-0.305176,-0.854492,-0.244141,-1,0.00000000,0.00000000,0.00000000,0.00000000,0.00000000,0.00000000,0.00000000,
26233220,12.2,36.1,0,0,0,-75.7,1.73,0.03,-0.38,1.27,1529,0.041,0.0973,0.0024,1.2193,0.0307,283406,287200,243.074,0,89,-0.016,0.244,26233205,0.0973,0.0024,1.2193,0.0307,0.917,51.932,0.03,1.97,0.303,586.491,594.343,1,26233219,0.0144797,0.00564343,-2.37313,-0.000488281,-0.0180664,1.04883,0.183105,-0.488281,-0.183105,-1,0.00000000,0.00000000,0.00000000,0.00000000,0.00000000,0.00000000,0.00000000,
26233256,12.3,36.1,0,0,0,-75.6,1.45,0.03,0.38,1.2,1461,0.041,0.0973,0.0024,1.2193,0.0307,283409,287203,33.0268,0,89,0.055,0.232,26233223,0.0973,0.0024,1.2193,0.0307,0.917,51.933,0.03,1.65,0.316,586.5,594.351,1,26233238,0.0142975,0.00566725,-2.37312,-0.0078125,-0.0200195,1.05713,0.0610352,-0.305176,0,-1,0.00000000,0.00000000,0.00000000,0.00000000,0.00000000,0.00000000,0.00000000,
26233272,12.2,36.1,0,0,0,-75.9,1.68,0.03,-0.34,1.31,1474,0.04,0.0973,0.0024,1.2193,0.0307,283413,287207,302.743,0,89,0.018,0.235,26233257,0.0973,0.0024,1.2193,0.0307,0.917,51.933,0.03,1.97,0.299,586.504,594.355,1,26233265,0.0120628,0.00652926,-2.37307,-0.00634766,-0.012207,1.04199,-0.427246,0.549316,-0.0610352,-1,0.00000000,0.00000000,0.00000000,0.00000000,0.00000000,0.00000000,0.00000000,
26233289,12.2,36.1,0,0,0,-76.1,1.47,0.04,0.75,1.24,1427,0.041,0.0973,0.0024,1.2193,0.0307,283415,287209,65.2295,0,89,0.012,0.226,26233277,0.0973,0.0024,1.2193,0.0307,0.917,51.933,0.03,1.28,0.303,586.514,594.366,1,26233288,0.0102307,0.00775464,-2.37306,-0.00683594,-0.00927734,1.06104,-0.305176,0.427246,0.0610352,-1,0.00000000,0.00000000,0.00000000,0.00000000,0.00000000,0.00000000,0.00000000,
26233308,12.2,36.1,0,0,0,-76.1,1.85,0.04,-0.76,1.38,1485,0.04,0.0973,0.0024,1.2193,0.0307,283419,287213,275.624,0,89,0.015,0.239,26233293,0.0973,0.0024,1.2193,0.0307,0.917,51.933,0.04,1.6,0.294,586.518,594.37,1,26233303,0.0129858,0.00939648,-2.373,-0.00976563,-0.0175781,1.04688,0,0.0610352,-0.183105,-1,0.00000000,0.00000000,0.00000000,0.00000000,0.00000000,0.00000000,0.00000000,
26233334,12.2,36.1,0,0,0,-75.9,1.48,0.04,0.7,1.27,1410,0.041,0.0973,0.0024,1.2193,0.0307,283422,287216,75.8176,0,89,0.021,0.227,26233313,0.0973,0.0024,1.2193,0.0307,0.917,51.934,0.03,1.17,0.302,586.524,594.376,1,26233325,0.0110798,0.0100423,-2.373,-0.0126953,-0.00537109,1.04492,-0.0610352,-0.12207,-0.0610352,-1,0.00000000,0.00000000,0.00000000,0.00000000,0.00000000,0.00000000,0.00000000,
26233352,12.3,36.1,0,0,0,-76,1.84,0.04,-0.79,1.4,1458,0.04,0.0973,0.0024,1.2193,0.0307,283425,287219,281.882,0,89,0.026,0.237,26233338,0.0973,0.0024,1.2193,0.0307,0.917,51.934,0.04,1.07,0.293,586.531,594.382,1,26233347,0.0137876,0.00774772,-2.37295,-0.0078125,-0.0151367,1.05078,-0.0610352,-0.183105,0,-1,0.00000000,0.00000000,0.00000000,0.00000000,0.00000000,0.00000000,0.00000000,
26233375,12.3,36.1,0,0,0,-76,1.5,0.04,0.76,1.28,1400,0.041,0.0973,0.0024,1.2193,0.0307,283428,287222,75.368,0,89,0.017,0.229,26233358,0.0973,0.0024,1.2193,0.0307,0.917,51.935,0.03,1.28,0.298,586.537,594.388,1,26233368,0.0113536,0.00883057,-2.37296,-0.00878906,-0.00634766,1.04346,-0.244141,-0.610352,-0.0610352,-1,0.00000000,0.00000000,0.00000000,0.00000000,0.00000000,0.00000000,0.00000000,
26233399,12.3,36.1,0,0,0,-75.9,1.87,0.04,-0.85,1.41,1465,0.04,0.0973,0.0024,1.2193,0.0307,283431,287225,276.448,0,89,0.02,0.243,26233379,0.0973,0.0024,1.2193,0.0307,0.917,51.935,0.04,1.58,0.29,586.543,594.394,1,26233387,0.0105503,0.00659318,-2.37296,-0.00683594,-0.00878906,1.04248,-0.244141,-0.488281,-0.12207,-1,0.00000000,0.00000000,0.00000000,0.00000000,0.00000000,0.00000000,0.00000000,
26233419,12.3,36.1,0,0,0,-76.1,1.5,0.04,0.72,1.29,1403,0.041,0.0973,0.0024,1.2194,0.0307,283433,287227,67.8368,0,89,0.024,0.232,26233399,0.0973,0.0024,1.2193,0.0307,0.917,51.935,0.04,1.35,0.297,586.549,594.401,1,26233408,0.0133361,0.00592631,-2.37295,-0.00341797,-0.0151367,1.03662,-0.12207,-0.427246,0,-1,0.00000000,0.00000000,0.00000000,0.00000000,0.00000000,0.00000000,0.00000000,
26233437,12.2,36.1,0,0,0,-76.1,1.87,0.04,-0.82,1.39,1473,0.041,0.0973,0.0024,1.2194,0.0307,283437,287231,265.376,0,89,0.009,0.247,26233419,0.0973,0.0024,1.2194,0.0307,0.917,51.936,0.04,1.67,0.29,586.555,594.407,1,26233428,0.0136133,0.00499555,-2.37291,-0.0141602,-0.0170898,1.06885,-0.12207,-0.244141,0,-1,0.00000000,0.00000000,0.00000000,0.00000000,0.00000000,0.00000000,0.00000000,
26233457,12.3,36.1,0,0,0,-75.9,1.45,0.04,0.57,1.27,1414,0.041,0.0973,0.0024,1.2194,0.0307,283439,287233,50.234,0,89,0.039,0.236,26233438,0.0973,0.0024,1.2194,0.0307,0.917,51.936,0.04,1.26,0.301,586.562,594.413,1,26233449,0.0137663,0.0018666,-2.3729,-0.00146484,-0.0146484,1.04785,-0.12207,0.12207,-0.12207,-1,0.00000000,0.00000000,0.00000000,0.00000000,0.00000000,0.00000000,0.00000000,
26233477,12.3,36.1,0,0,0,-75.9,1.87,0.04,-0.58,1.41,1478,0.041,0.0973,0.0024,1.2194,0.0307,283443,287237,270.245,0,89,0.006,0.243,26233460,0.0973,0.0024,1.2194,0.0307,0.917,51.936,0.05,1.8,0.291,586.568,594.419,1,26233470,0.0132617,0.00263175,-2.37289,-0.00390625,-0.0136719,1.0498,-0.12207,0.183105,-0.0610352,-1,0.00000000,0.00000000,0.00000000,0.00000000,0.00000000,0.00000000,0.00000000,
26233497,12.2,36.1,0,0,0,-75.8,1.45,0.04,0.59,1.27,1415,0.041,0.0973,0.0024,1.2194,0.0307,283445,287239,54.5659,0,89,0.035,0.235,26233480,0.0973,0.0024,1.2194,0.0307,0.917,51.937,0.03,1.19,0.301,586.574,594.426,1,26233491,0.0115458,0.00388728,-2.37281,-0.00537109,-0.00976563,1.03955,-0.12207,0.488281,-0.366211,-1,0.00000000,0.00000000,0.00000000,0.00000000,0.00000000,0.00000000,0.00000000,
26233519,12.2,36.1,0,0,0,-75.6,1.85,0.04,-0.56,1.45,1469,0.039,0.0973,0.0024,1.2194,0.0307,283449,287243,273.214,0,89,0.008,0.235,26233500,0.0973,0.0024,1.2194,0.0307,0.917,51.937,0.03,1.76,0.292,586.578,594.43,1,26233513,0.0129018,0.00420897,-2.37275,-0.00341797,-0.0141602,1.05908,-0.244141,0.12207,-0.0610352,-1,0.00000000,0.00000000,0.00000000,0.00000000,0.00000000,0.00000000,0.00000000,
26233539,12.2,36.1,0,0,0,-75.7,1.42,0.04,0.57,1.26,1398,0.04,0.0973,0.0024,1.2194,0.0307,283451,287245,50.736,0,89,0.036,0.226,26233523,0.0973,0.0024,1.2194,0.0307,0.917,51.937,0.03,1.18,0.298,586.586,594.438,1,26233536,0.0132411,0.00710373,-2.37269,-0.0112305,-0.0161133,1.05762,-0.366211,-0.0610352,-0.183105,-1,0.00000000,0.00000000,0.00000000,0.00000000,0.00000000,0.00000000,0.00000000,
26233561,12.2,36.1,0,0,0,-75.6,1.87,0.04,-0.52,1.46,1454,0.04,0.0973,0.0024,1.2194,0.0307,283455,287249,272.432,0,89,0.006,0.233,26233544,0.0973,0.0024,1.2194,0.0307,0.917,51.938,0.04,1.72,0.288,586.591,594.442,1,26233557,0.0131908,0.00678046,-2.37263,-0.00341797,-0.0141602,1.0498,-0.488281,-0.427246,-0.305176,-1,0.00000000,0.00000000,0.00000000,0.00000000,0.00000000,0.00000000,0.00000000,
26233582,12.3,36.1,0,0,0,-75.8,1.43,0.04,0.56,1.27,1396,0.041,0.0973,0.0024,1.2194,0.0307,283457,287251,50.5639,0,89,0.038,0.231,26233565,0.0973,0.0024,1.2194,0.0307,0.917,51.938,0.03,1.2,0.296,586.599,594.45,1,26233579,0.0127776,0.00657006,-2.37265,-0.00585938,-0.0131836,1.05176,-0.427246,-0.549316,0.12207,-1,0.00000000,0.00000000,0.00000000,0.00000000,0.00000000,0.00000000,0.00000000,
