ms_today;input_voltage;temp_mos_max;temp_mos_1;temp_mos_2;temp_mos_3;temp_motor;current_motor;current_in;d_axis_current;q_axis_current;erpm;duty_cycle;amp_hours_used;amp_hours_charged;watt_hours_used;watt_hours_charged;tachometer;tachometer_abs;encoder_position;fault_code;vesc_id;d_axis_voltage;q_axis_voltage;ms_today_setup;amp_hours_setup;amp_hours_charged_setup;watt_hours_setup;watt_hours_charged_setup;battery_level;battery_wh_tot;current_in_setup;current_motor_setup;speed_meters_per_sec;tacho_meters;tacho_abs_meters;num_vescs;ms_today_imu;roll;pitch;yaw;accX;accY;accZ;gyroX;gyroY;gyroZ;gnss_posTime;gnss_lat;gnss_lon;gnss_alt;gnss_gVel;gnss_vVel;gnss_hAcc;gnss_vAcc;
35020924;12.7;32;0;0;0;-75.9;0.11;0;-0.12;0.04;0;0;0.0124;0;0.1593;0.0006;69657;69717;315;0;89;0.014;0.011;35020426;0.0124;0;0.1593;0.0006;1.008;57.071;0;0.11;0;144.152;144.276;1;-1;0;0;0;0;0;0;0;0;0;-1;0.00000000;0.00000000;0.00000000;0.00000000;0.00000000;0.00000000;0.00000000;
35020954;12.7;32;0;0;0;-75.9;0.11;0;-0.12;0.04;0;0;0.0124;0;0.1593;0.0006;69657;69717;315.001;0;89;0.015;0.011;35020924;0.0124;0;0.1593;0.0006;1.008;57.07;0;0.08;0;144.152;144.276;1;-1;0;0;0;0;0;0;0;0;0;-1;0.00000000;0.00000000;0.00000000;0.00000000;0.00000000;0.00000000;0.00000000;
35020980;12.7;32;0;0;0;-75.9;0.09;0;-0.1;0.03;0;0;0.0124;0;0.1593;0.0006;69657;69717;315.01;0;89;0.013;0.01;35020959;0.0124;0;0.1593;0.0006;1.008;57.07;0;0.13;0;144.152;144.276;1;-1;0;0;0;0;0;0;0;0;0;-1;0.00000000;0.00000000;0.00000000;0.00000000;0.00000000;0.00000000;0.00000000;
35021001;12.7;32;0;0;0;-75.8;0.09;0;-0.1;0.03;0;0;0.0124;0;0.1593;0.0006;69657;69717;315;0;89;0.015;0.011;35020984;0.0124;0;0.1593;0.0006;1.008;57.07;0;-0.02;0;144.152;144.276;1;-1;0;0;0;0;0;0;0;0;0;-1;0.00000000;0.00000000;0.00000000;0.00000000;0.00000000;0.00000000;0.00000000;
35021032;12.7;32;0;0;0;-75.8;0.09;0;-0.1;0.03;0;0;0.0124;0;0.1593;0.0006;69657;69717;315;0;89;0.015;0.011;35021007;0.0124;0;0.1593;0.0006;1.008;57.069;0;0.1;0;144.152;144.276;1;-1;0;0;0;0;0;0;0;0;0;-1;0.00000000;0.00000000;0.00000000;0.00000000;0.00000000;0.00000000;0.00000000;
35021052;12.7;32;0;0;0;-76.1;0.1;0;-0.1;0.03;0;0;0.0124;0;0.1593;0.0006;69657;69717;315.014;0;89;0.015;0.011;35021033;0.0124;0;0.1593;0.0006;1.008;57.069;0;0.12;0;144.152;144.276;1;-1;0;0;0;0;0;0;0;0;0;-1;0.00000000;0.00000000;0.00000000;0.00000000;0.00000000;0.00000000;0.00000000;
35021081;12.7;32;0;0;0;-76;0.1;0;-0.11;0.03;0;0;0.0124;0;0.1593;0.0006;69657;69717;315;0;89;0.014;0.01;35021053;0.0124;0;0.1593;0.0006;1.008;57.069;0;0.04;0;144.152;144.276;1;-1;0;0;0;0;0;0;0;0;0;-1;0.00000000;0.00000000;0.00000000;0.00000000;0.00000000;0.00000000;0.00000000;
35021107;12.7;32;0;0;0;-76;0.09;0;-0.1;0.03;0;0;0.0124;0;0.1593;0.0006;69657;69717;315.006;0;89;0.015;0.011;35021090;0.0124;0;0.1593;0.0006;1.008;57.069;0;0.14;0;144.152;144.276;1;-1;0;0;0;0;0;0;0;0;0;-1;0.00000000;0.00000000;0.00000000;0.00000000;0.00000000;0.00000000;0.00000000;
35021135;12.7;32;0;0;0;-76.3;0.09;0;-0.11;0.03;0;0;0.0124;0;0.1593;0.0006;69657;69717;315;0;89;0.014;0.01;35021111;0.0124;0;0.1593;0.0006;1.008;57.069;0;0.05;0;144.152;144.276;1;-1;0;0;0;0;0;0;0;0;0;-1;0.00000000;0.00000000;0.00000000;0.00000000;0.00000000;0.00000000;0.00000000;
35021156;12.7;32;0;0;0;-76;0.12;0;-0.13;0.05;0;0;0.0124;0;0.1593;0.0006;69657;69717;315.013;0;89;0.015;0.011;35021140;0.0124;0;0.1593;0.0006;1.008;57.069;0;0.12;0;144.152;144.276;1;-1;0;0;0;0;0;0;0;0;0;-1;0.00000000;0.00000000;0.00000000;0.00000000;0.00000000;0.00000000;0.00000000;
35021177;12.7;32;0;0;0;-75.9;0.11;0;-0.11;0.04;0;0;0.0124;0;0.1593;0.0006;69657;69717;315.01;0;89;0.015;0.011;35021160;0.0124;0;0.1593;0.0006;1.008;57.069;0;-0.13;0;144.152;144.276;1;-1;0;0;0;0;0;0;0;0;0;-1;0.00000000;0.00000000;0.00000000;0.00000000;0.00000000;0.00000000;0.00000000;
35021199;12.7;32;0;0;0;-76.2;0.1;0;-0.11;0.04;0;0;0.0124;0;0.1593;0.0006;69657;69717;315;0;89;0.015;0.011;35021180;0.0124;0;0.1593;0.0006;1.008;57.069;0;0.05;0;144.152;144.276;1;-1;0;0;0;0;0;0;0;0;0;-1;0.00000000;0.00000000;0.00000000;0.00000000;0.00000000;0.00000000;0.00000000;
35021222;12.7;32;0;0;0;-76.4;0.11;0;-0.12;0.04;0;0;0.0124;0;0.1593;0.0006;69657;69717;315.005;0;89;0.015;0.011;35021207;0.0124;0;0.1593;0.0006;1.008;57.069;0;0.12;0;144.152;144.276;1;-1;0;0;0;0;0;0;0;0;0;-1;0.00000000;0.00000000;0.00000000;0.00000000;0.00000000;0.00000000;0.00000000;
35021250;12.7;32;0;0;0;-76.3;0.11;0;-0.12;0.05;0;0;0.0124;0;0.1593;0.0006;69657;69717;315.004;0;89;0.015;0.011;35021226;0.0124;0;0.1593;0.0006;1.008;57.069;0;0.06;0;144.152;144.276;1;-1;0;0;0;0;0;0;0;0;0;-1;0.00000000;0.00000000;0.00000000;0.00000000;0.00000000;0.00000000;0.00000000;
35021271;12.7;32;0;0;0;-75.9;0.11;0;-0.11;0.04;0;0;0.0124;0;0.1593;0.0006;69657;69717;315;0;89;0.015;0.011;35021251;0.0124;0;0.1593;0.0006;1.008;57.069;0;0.07;0;144.152;144.276;1;-1;0;0;0;0;0;0;0;0;0;-1;0.00000000;0.00000000;0.00000000;0.00000000;0.00000000;0.00000000;0.00000000;
35021307;12.7;32;0;0;0;-75.9;0.1;0;-0.11;0.04;0;0;0.0124;0;0.1593;0.0006;69657;69717;315;0;89;0.013;0.01;35021271;0.0124;0;0.1593;0.0006;1.008;57.069;0;0.08;0;144.152;144.276;1;-1;0;0;0;0;0;0;0;0;0;-1;0.00000000;0.00000000;0.00000000;0.00000000;0.00000000;0.00000000;0.00000000;
35021337;12.7;32;0;0;0;-75.7;0.13;0;-0.13;0.05;0;0;0.0124;0;0.1593;0.0006;69657;69717;315.002;0;89;0.014;0.011;35021307;0.0124;0;0.1593;0.0006;1.008;57.068;0;0.19;0;144.152;144.276;1;-1;0;0;0;0;0;0;0;0;0;-1;0.00000000;0.00000000;0.00000000;0.00000000;0.00000000;0.00000000;0.00000000;
35021360;12.7;32;0;0;0;-75.6;0.1;0;-0.11;0.04;0;0;0.0124;0;0.1593;0.0006;69657;69717;315.014;0;89;0.014;0.01;35021343;0.0124;0;0.1593;0.0006;1.008;57.068;0;0.16;0;144.152;144.276;1;-1;0;0;0;0;0;0;0;0;0;-1;0.00000000;0.00000000;0.00000000;0.00000000;0.00000000;0.00000000;0.00000000;
35021382;12.7;32;0;0;0;-75.6;0.12;0;-0.13;0.04;0;0;0.0124;0;0.1593;0.0006;69657;69717;315.002;0;89;0.014;0.01;35021364;0.0124;0;0.1593;0.0006;1.008;57.068;0;0.05;0;144.152;144.276;1;-1;0;0;0;0;0;0;0;0;0;-1;0.00000000;0.00000000;0.00000000;0.00000000;0.00000000;0.00000000;0.00000000;
35021405;12.7;32;0;0;0;-75.6;0.07;0;-0.1;0.02;0;0;0.0124;0;0.1593;0.0006;69657;69717;315.009;0;89;0.015;0.011;35021390;0.0124;0;0.1593;0.0006;1.008;57.068;0;0.07;0;144.152;144.276;1;-1;0;0;0;0;0;0;0;0;0;-1;0.00000000;0.00000000;0.00000000;0.00000000;0.00000000;0.00000000;0.00000000;
35021435;12.7;32;0;0;0;-75.4;0.1;0;-0.11;0.04;0;0;0.0124;0;0.1593;0.0006;69657;69717;315.005;0;89;0.014;0.011;35021410;0.0124;0;0.1593;0.0006;1.008;57.068;0;0.11;0;144.152;144.276;1;-1;0;0;0;0;0;0;0;0;0;-1;0.00000000;0.00000000;0.00000000;0.00000000;0.00000000;0.00000000;0.00000000;
35021447;12.7;32;0;0;0;-75.5;0.11;0;-0.12;0.04;0;0;0.0124;0;0.1593;0.0006;69657;69717;315;0;89;0.015;0.012;35021435;0.0124;0;0.1593;0.0006;1.008;57.068;0;0.29;0;144.152;144.276;1;-1;0;0;0;0;0;0;0;0;0;-1;0.00000000;0.00000000;0.00000000;0.00000000;0.00000000;0.00000000;0.00000000;
35021473;12.7;32;0;0;0;-75.7;0.09;0;-0.1;0.03;0;0;0.0124;0;0.1593;0.0006;69657;69717;315;0;89;0.015;0.011;35021458;0.0124;0;0.1593;0.0006;1.008;57.068;0;0.13;0;144.152;144.276;1;-1;0;0;0;0;0;0;0;0;0;-1;0.00000000;0.00000000;0.00000000;0.00000000;0.00000000;0.00000000;0.00000000;
35021494;12.7;32;0;0;0;-75.7;0.1;0;-0.11;0.03;0;0;0.0124;0;0.1593;0.0006;69657;69717;315;0;89;0.015;0.011;35021474;0.0124;0;0.1593;0.0006;1.008;57.068;0;0.18;0;144.152;144.276;1;-1;0;0;0;0;0;0;0;0;0;-1;0.00000000;0.00000000;0.00000000;0.00000000;0.00000000;0.00000000;0.00000000;
35021518;12.7;32;0;0;0;-75.8;0.09;0;-0.11;0.03;0;0;0.0124;0;0.1593;0.0006;69657;69717;315.004;0;89;0.015;0.011;35021494;0.0124;0;0.1593;0.0006;1.008;57.068;0;0.08;0;144.152;144.276;1;-1;0;0;0;0;0;0;0;0;0;-1;0.00000000;0.00000000;0.00000000;0.00000000;0.00000000;0.00000000;0.00000000;
35021538;12.7;32;0;0;0;-75.7;0.09;0;-0.11;0.03;0;0;0.0124;0;0.1593;0.0006;69657;69717;315;0;89;0.014;0.01;35021518;0.0124;0;0.1593;0.0006;1.008;57.068;0;-0.1;0;144.152;144.276;1;-1;0;0;0;0;0;0;0;0;0;-1;0.00000000;0.00000000;0.00000000;0.00000000;0.00000000;0.00000000;0.00000000;
35021561;12.7;32;0;0;0;-75.8;0.1;0;-0.11;0.03;0;0;0.0124;0;0.1593;0.0006;69657;69717;315.001;0;89;0.015;0.011;35021543;0.0124;0;0.1593;0.0006;1.008;57.068;0;0.17;0;144.152;144.276;1;-1;0;0;0;0;0;0;0;0;0;-1;0.00000000;0.00000000;0.00000000;0.00000000;0.00000000;0.00000000;0.00000000;
35021582;12.7;32;0;0;0;-75.9;0.11;0;-0.11;0.04;0;0;0.0124;0;0.1593;0.0006;69657;69717;315;0;89;0.014;0.011;35021564;0.0124;0;0.1593;0.0006;1.008;57.068;0;0.12;0;144.152;144.276;1;-1;0;0;0;0;0;0;0;0;0;-1;0.00000000;0.00000000;0.00000000;0.00000000;0.00000000;0.00000000;0.00000000;
35021607;12.7;32;0;0;0;-75.8;0.1;0;-0.11;0.04;0;0;0.0124;0;0.1593;0.0006;69657;69717;315;0;89;0.015;0.012;35021590;0.0124;0;0.1593;0.0006;1.008;57.068;0;0.15;0;144.152;144.276;1;-1;0;0;0;0;0;0;0;0;0;-1;0.00000000;0.00000000;0.00000000;0.00000000;0.00000000;0.00000000;0.00000000;
35021635;12.7;32;0;0;0;-75.7;0.08;0;-0.1;0.02;0;0;0.0124;0;0.1593;0.0006;69657;69717;315.005;0;89;0.015;0.011;35021610;0.0124;0;0.1593;0.0006;1.008;57.067;0;0.11;0;144.152;144.276;1;-1;0;0;0;0;0;0;0;0;0;-1;0.00000000;0.00000000;0.00000000;0.00000000;0.00000000;0.00000000;0.00000000;
35021654;12.7;32;0;0;0;-75.3;0.08;0;-0.09;0.02;0;0;0.0124;0;0.1593;0.0006;69657;69717;315.008;0;89;0.014;0.011;35021635;0.0124;0;0.1593;0.0006;1.008;57.067;0;0.06;0;144.152;144.276;1;-1;0;0;0;0;0;0;0;0;0;-1;0.00000000;0.00000000;0.00000000;0.00000000;0.00000000;0.00000000;0.00000000;
35021676;12.7;32;0;0;0;-75.6;0.07;0;-0.09;0.02;0;0;0.0124;0;0.1593;0.0006;69657;69717;315.012;0;89;0.014;0.01;35021654;0.0124;0;0.1593;0.0006;1.008;57.067;0;0.05;0;144.152;144.276;1;-1;0;0;0;0;0;0;0;0;0;-1;0.00000000;0.00000000;0.00000000;0.00000000;0.00000000;0.00000000;0.00000000;
35021702;12.7;32;0;0;0;-75.5;0.08;0;-0.09;0.03;0;0;0.0124;0;0.1593;0.0006;69657;69717;315.01;0;89;0.014;0.01;35021676;0.0124;0;0.1593;0.0006;1.008;57.067;0;0.01;0;144.152;144.276;1;-1;0;0;0;0;0;0;0;0;0;-1;0.00000000;0.00000000;0.00000000;0.00000000;0.00000000;0.00000000;0.00000000;
35021721;12.7;32;0;0;0;-75.7;0.11;0;-0.12;0.04;0;0;0.0124;0;0.1593;0.0006;69657;69717;315.012;0;89;0.015;0.011;35021702;0.0124;0;0.1593;0.0006;1.008;57.067;0;-0.03;0;144.152;144.276;1;-1;0;0;0;0;0;0;0;0;0;-1;0.00000000;0.00000000;0.00000000;0.00000000;0.00000000;0.00000000;0.00000000;
35021760;12.7;32;0;0;0;-75.9;0.09;0;-0.1;0.02;0;0;0.0124;0;0.1593;0.0006;69657;69717;315.008;0;89;0.014;0.011;35021740;0.0124;0;0.1593;0.0006;1.008;57.067;0;0.09;0;144.152;144.276;1;-1;0;0;0;0;0;0;0;0;0;-1;0.00000000;0.00000000;0.00000000;0.00000000;0.00000000;0.00000000;0.00000000;
35021777;12.7;32;0;0;0;-75.8;0.06;0;-0.07;0.02;0;0;0.0124;0;0.1593;0.0006;69657;69717;315.004;0;89;0.015;0.01;35021764;0.0124;0;0.1593;0.0006;1.008;57.067;0;0.05;0;144.152;144.276;1;-1;0;0;0;0;0;0;0;0;0;-1;0.00000000;0.00000000;0.00000000;0.00000000;0.00000000;0.00000000;0.00000000;
35021801;12.7;32;0;0;0;-76.2;0.12;0;-0.12;0.05;0;0;0.0124;0;0.1593;0.0006;69657;69717;315.025;0;89;0.015;0.011;35021778;0.0124;0;0.1593;0.0006;1.008;57.067;0;0.08;0;144.152;144.276;1;-1;0;0;0;0;0;0;0;0;0;-1;0.00000000;0.00000000;0.00000000;0.00000000;0.00000000;0.00000000;0.00000000;
35021821;12.7;32;0;0;0;-76;0.09;0;-0.11;0.04;0;0;0.0124;0;0.1593;0.0006;69657;69717;315.005;0;89;0.015;0.011;35021801;0.0124;0;0.1593;0.0006;1.008;57.067;0;0.15;0;144.152;144.276;1;-1;0;0;0;0;0;0;0;0;0;-1;0.00000000;0.00000000;0.00000000;0.00000000;0.00000000;0.00000000;0.00000000;
35021844;12.7;32;0;0;0;-75.7;0.09;0;-0.1;0.03;0;0;0.0124;0;0.1593;0.0006;69657;69717;315.009;0;89;0.014;0.011;35021826;0.0124;0;0.1593;0.0006;1.008;57.067;0;0.19;0;144.152;144.276;1;-1;0;0;0;0;0;0;0;0;0;-1;0.00000000;0.00000000;0.00000000;0.00000000;0.00000000;0.00000000;0.00000000;
35021874;12.7;32;0;0;0;-76.2;0.1;0;-0.11;0.03;0;0;0.0124;0;0.1593;0.0006;69657;69717;315.008;0;89;0.014;0.01;35021847;0.0124;0;0.1593;0.0006;1.008;57.067;0;0.03;0;144.152;144.276;1;-1;0;0;0;0;0;0;0;0;0;-1;0.00000000;0.00000000;0.00000000;0.00000000;0.00000000;0.00000000;0.00000000;
35021906;12.7;32;0;0;0;-76.1;0.09;0;-0.1;0.03;0;0;0.0124;0;0.1593;0.0006;69657;69717;315;0;89;0.014;0.011;35021874;0.0124;0;0.1593;0.0006;1.008;57.067;0;0.05;0;144.152;144.276;1;-1;0;0;0;0;0;0;0;0;0;-1;0.00000000;0.00000000;0.00000000;0.00000000;0.00000000;0.00000000;0.00000000;
35021915;12.7;32;0;0;0;-76;0.12;0;-0.12;0.04;0;0;0.0124;0;0.1593;0.0006;69657;69717;315;0;89;0.019;0.014;35021910;0.0124;0;0.1593;0.0006;1.008;57.067;0;0.11;0;144.152;144.276;1;-1;0;0;0;0;0;0;0;0;0;-1;0.00000000;0.00000000;0.00000000;0.00000000;0.00000000;0.00000000;0.00000000;
35021938;12.7;32;0;0;0;-75.9;0.1;0;-0.11;0.03;0;0;0.0124;0;0.1593;0.0006;69657;69717;315.011;0;89;0.014;0.01;35021923;0.0124;0;0.1593;0.0006;1.008;57.067;0;0.16;0;144.152;144.276;1;-1;0;0;0;0;0;0;0;0;0;-1;0.00000000;0.00000000;0.00000000;0.00000000;0.00000000;0.00000000;0.00000000;
35021962;12.7;32;0;0;0;-76;0.09;0;-0.1;0.03;0;0;0.0124;0;0.1593;0.0006;69657;69717;315.002;0;89;0.014;0.01;35021943;0.0124;0;0.1593;0.0006;1.008;57.067;0;0.18;0;144.152;144.276;1;-1;0;0;0;0;0;0;0;0;0;-1;0.00000000;0.00000000;0.00000000;0.00000000;0.00000000;0.00000000;0.00000000;
35021982;12.7;32;0;0;0;-76;0.09;0;-0.1;0.03;0;0;0.0124;0;0.1593;0.0006;69657;69717;315;0;89;0.014;0.011;35021965;0.0124;0;0.1593;0.0006;1.008;57.067;0;0.13;0;144.152;144.276;1;-1;0;0;0;0;0;0;0;0;0;-1;0.00000000;0.00000000;0.00000000;0.00000000;0.00000000;0.00000000;0.00000000;
35022009;12.7;32;0;0;0;-76.1;0.11;0;-0.12;0.04;0;0;0.0124;0;0.1593;0.0006;69657;69717;315.011;0;89;0.015;0.011;35021990;0.0124;0;0.1593;0.0006;1.008;57.067;0;0.14;0;144.152;144.276;1;-1;0;0;0;0;0;0;0;0;0;-1;0.00000000;0.00000000;0.00000000;0.00000000;0.00000000;0.00000000;0.00000000;
35022035;12.7;32;0;0;0;-75.9;0.09;0;-0.1;0.03;0;0;0.0124;0;0.1593;0.0006;69657;69717;315;0;89;0.015;0.011;35022009;0.0124;0;0.1593;0.0006;1.008;57.067;0;0.1;0;144.152;144.276;1;-1;0;0;0;0;0;0;0;0;0;-1;0.00000000;0.00000000;0.00000000;0.00000000;0.00000000;0.00000000;0.00000000;
35022058;12.7;32;0;0;0;-75.8;0.09;0;-0.1;0.03;0;0;0.0124;0;0.1593;0.0006;69657;69717;315.006;0;89;0.014;0.01;35022035;0.0124;0;0.1593;0.0006;1.008;57.067;0;0.11;0;144.152;144.276;1;-1;0;0;0;0;0;0;0;0;0;-1;0.00000000;0.00000000;0.00000000;0.00000000;0.00000000;0.00000000;0.00000000;
35022080;12.7;32;0;0;0;-75.7;0.12;0;-0.12;0.05;0;0;0.0124;0;0.1593;0.0006;69657;69717;315;0;89;0.015;0.011;35022062;0.0124;0;0.1593;0.0006;1.008;57.067;0;0.1;0;144.152;144.276;1;-1;0;0;0;0;0;0;0;0;0;-1;0.00000000;0.00000000;0.00000000;0.00000000;0.00000000;0.00000000;0.00000000;
35022106;12.7;32;0;0;0;-75.7;0.11;0;-0.12;0.05;0;0;0.0124;0;0.1593;0.0006;69657;69717;315;0;89;0.016;0.012;35022090;0.0124;0;0.1593;0.0006;1.008;57.067;0;0.13;0;144.152;144.276;1;-1;0;0;0;0;0;0;0;0;0;-1;0.00000000;0.00000000;0.00000000;0.00000000;0.00000000;0.00000000;0.00000000;
35022134;12.7;32;0;0;0;-75.6;0.08;0;-0.09;0.02;0;0;0.0124;0;0.1593;0.0006;69657;69717;315;0;89;0.015;0.011;35022109;0.0124;0;0.1593;0.0006;1.008;57.067;0;0.1;0;144.152;144.276;1;-1;0;0;0;0;0;0;0;0;0;-1;0.00000000;0.00000000;0.00000000;0.00000000;0.00000000;0.00000000;0.00000000;
35022154;12.7;32;0;0;0;-75.6;0.09;0;-0.1;0.04;0;0;0.0124;0;0.1593;0.0006;69657;69717;315;0;89;0.014;0.01;35022135;0.0124;0;0.1593;0.0006;1.008;57.067;0;0.09;0;144.152;144.276;1;-1;0;0;0;0;0;0;0;0;0;-1;0.00000000;0.00000000;0.00000000;0.00000000;0.00000000;0.00000000;0.00000000;
35022176;12.7;32;0;0;0;-75.8;0.1;0;-0.11;0.03;0;0;0.0124;0;0.1593;0.0006;69657;69717;315;0;89;0.014;0.01;35022154;0.0124;0;0.1593;0.0006;1.008;57.067;0;0.06;0;144.152;144.276;1;-1;0;0;0;0;0;0;0;0;0;-1;0.00000000;0.00000000;0.00000000;0.00000000;0.00000000;0.00000000;0.00000000;
35022201;12.7;32;0;0;0;-76.2;0.1;0;-0.11;0.03;0;0;0.0124;0;0.1593;0.0006;69657;69717;315.018;0;89;0.014;0.011;35022176;0.0124;0;0.1593;0.0006;1.008;57.067;0;0.09;0;144.152;144.276;1;-1;0;0;0;0;0;0;0;0;0;-1;0.00000000;0.00000000;0.00000000;0.00000000;0.00000000;0.00000000;0.00000000;
35022223;12.7;32;0;0;0;-75.9;0.09;0;-0.1;0.03;0;0;0.0124;0;0.1593;0.0006;69657;69717;315;0;89;0.015;0.011;35022201;0.0124;0;0.1593;0.0006;1.008;57.067;0;0.06;0;144.152;144.276;1;-1;0;0;0;0;0;0;0;0;0;-1;0.00000000;0.00000000;0.00000000;0.00000000;0.00000000;0.00000000;0.00000000;
35022246;12.7;32;0;0;0;-75.9;0.06;0;-0.09;0.01;0;0;0.0124;0;0.1593;0.0006;69657;69717;315.013;0;89;0.014;0.01;35022227;0.0124;0;0.1593;0.0006;1.008;57.067;0;0.17;0;144.152;144.276;1;-1;0;0;0;0;0;0;0;0;0;-1;0.00000000;0.00000000;0.00000000;0.00000000;0.00000000;0.00000000;0.00000000;
35022275;12.7;32.1;0;0;0;-75.8;0.1;0;-0.12;0.04;0;0;0.0124;0;0.1593;0.0006;69657;69717;315.016;0;89;0.014;0.01;35022254;0.0124;0;0.1593;0.0006;1.008;57.067;0;-0.03;0;144.152;144.276;1;-1;0;0;0;0;0;0;0;0;0;-1;0.00000000;0.00000000;0.00000000;0.00000000;0.00000000;0.00000000;0.00000000;
35022303;12.7;32;0;0;0;-75.8;0.1;0;-0.12;0.03;0;0;0.0124;0;0.1593;0.0006;69657;69717;315.005;0;89;0.014;0.011;35022276;0.0124;0;0.1593;0.0006;1.008;57.067;0;0.1;0;144.152;144.276;1;-1;0;0;0;0;0;0;0;0;0;-1;0.00000000;0.00000000;0.00000000;0.00000000;0.00000000;0.00000000;0.00000000;
35022344;12.7;32.1;0;0;0;-75.7;0.1;0;-0.11;0.03;0;0;0.0124;0;0.1593;0.0006;69657;69717;315.012;0;89;0.014;0.01;35022304;0.0124;0;0.1593;0.0006;1.008;57.067;0;0.17;0;144.152;144.276;1;-1;0;0;0;0;0;0;0;0;0;-1;0.00000000;0.00000000;0.00000000;0.00000000;0.00000000;0.00000000;0.00000000;
35022360;12.7;32;0;0;0;-75.8;0.07;0;-0.09;0.02;0;0;0.0124;0;0.1593;0.0006;69657;69717;315;0;89;0.015;0.011;35022348;0.0124;0;0.1593;0.0006;1.008;57.067;0;0.08;0;144.152;144.276;1;-1;0;0;0;0;0;0;0;0;0;-1;0.00000000;0.00000000;0.00000000;0.00000000;0.00000000;0.00000000;0.00000000;
35022385;12.7;32.1;0;0;0;-75.7;0.1;0;-0.11;0.03;0;0;0.0124;0;0.1593;0.0006;69657;69717;315;0;89;0.014;0.011;35022361;0.0124;0;0.1593;0.0006;1.008;57.067;0;0.09;0;144.152;144.276;1;-1;0;0;0;0;0;0;0;0;0;-1;0.00000000;0.00000000;0.00000000;0.00000000;0.00000000;0.00000000;0.00000000;
35022404;12.7;32.1;0;0;0;-75.7;0.08;0;-0.1;0.03;0;0;0.0124;0;0.1593;0.0006;69657;69717;315.001;0;89;0.015;0.011;35022391;0.0124;0;0.1593;0.0006;1.008;57.067;0;0.15;0;144.152;144.276;1;-1;0;0;0;0;0;0;0;0;0;-1;0.00000000;0.00000000;0.00000000;0.00000000;0.00000000;0.00000000;0.00000000;
35022427;12.7;32.1;0;0;0;-75.8;0.12;0;-0.13;0.04;0;0;0.0124;0;0.1593;0.0006;69657;69717;315;0;89;0.016;0.011;35022410;0.0124;0;0.1593;0.0006;1.008;57.067;0;0.16;0;144.152;144.276;1;-1;0;0;0;0;0;0;0;0;0;-1;0.00000000;0.00000000;0.00000000;0.00000000;0.00000000;0.00000000;0.00000000;
35022457;12.7;32.1;0;0;0;-75.9;0.09;0;-0.1;0.03;0;0;0.0124;0;0.1593;0.0006;69657;69717;315.013;0;89;0.014;0.01;35022430;0.0124;0;0.1593;0.0006;1.008;57.067;0;0.19;0;144.152;144.276;1;-1;0;0;0;0;0;0;0;0;0;-1;0.00000000;0.00000000;0.00000000;0.00000000;0.00000000;0.00000000;0.00000000;
35022495;12.7;32.1;0;0;0;-76;0.1;0;-0.11;0.03;0;0;0.0124;0;0.1593;0.0006;69657;69717;315.004;0;89;0.014;0.011;35022461;0.0124;0;0.1593;0.0006;1.008;57.067;0;-0.02;0;144.152;144.276;1;-1;0;0;0;0;0;0;0;0;0;-1;0.00000000;0.00000000;0.00000000;0.00000000;0.00000000;0.00000000;0.00000000;
35022524;12.7;32.1;0;0;0;-76;0.11;0;-0.12;0.05;0;0;0.0124;0;0.1593;0.0006;69657;69717;315.01;0;89;0.015;0.011;35022507;0.0124;0;0.1593;0.0006;1.008;57.067;0;0.12;0;144.152;144.276;1;-1;0;0;0;0;0;0;0;0;0;-1;0.00000000;0.00000000;0.00000000;0.00000000;0.00000000;0.00000000;0.00000000;
35022544;12.7;32.1;0;0;0;-75.9;0.11;0;-0.11;0.04;0;0;0.0124;0;0.1593;0.0006;69657;69717;315.01;0;89;0.015;0.011;35022527;0.0124;0;0.1593;0.0006;1.008;57.067;0;0.14;0;144.152;144.276;1;-1;0;0;0;0;0;0;0;0;0;-1;0.00000000;0.00000000;0.00000000;0.00000000;0.00000000;0.00000000;0.00000000;
35022566;12.7;32;0;0;0;-76;0.09;0;-0.1;0.03;0;0;0.0124;0;0.1593;0.0006;69657;69717;315;0;89;0.014;0.01;35022548;0.0124;0;0.1593;0.0006;1.008;57.067;0;0.02;0;144.152;144.276;1;-1;0;0;0;0;0;0;0;0;0;-1;0.00000000;0.00000000;0.00000000;0.00000000;0.00000000;0.00000000;0.00000000;
35022594;12.7;32.1;0;0;0;-76;0.1;0;-0.11;0.04;0;0;0.0124;0;0.1593;0.0006;69657;69717;315.001;0;89;0.014;0.01;35022573;0.0124;0;0.1593;0.0006;1.008;57.067;0;-0.07;0;144.152;144.276;1;-1;0;0;0;0;0;0;0;0;0;-1;0.00000000;0.00000000;0.00000000;0.00000000;0.00000000;0.00000000;0.00000000;
35022618;12.7;32.1;0;0;0;-75.9;0.09;0;-0.1;0.03;0;0;0.0124;0;0.1593;0.0006;69657;69717;315.004;0;89;0.014;0.01;35022595;0.0124;0;0.1593;0.0006;1.008;57.067;0;0.08;0;144.152;144.276;1;-1;0;0;0;0;0;0;0;0;0;-1;0.00000000;0.00000000;0.00000000;0.00000000;0.00000000;0.00000000;0.00000000;
35022639;12.7;32.1;0;0;0;-75.7;0.13;0;-0.13;0.06;0;0;0.0124;0;0.1593;0.0006;69657;69717;315;0;89;0.015;0.012;35022618;0.0124;0;0.1593;0.0006;1.008;57.067;0;0.13;0;144.152;144.276;1;-1;0;0;0;0;0;0;0;0;0;-1;0.00000000;0.00000000;0.00000000;0.00000000;0.00000000;0.00000000;0.00000000;
35022661;12.7;32.1;0;0;0;-75.5;0.09;0;-0.1;0.03;0;0;0.0124;0;0.1593;0.0006;69657;69717;315;0;89;0.014;0.011;35022643;0.0124;0;0.1593;0.0006;1.008;57.067;0;0.12;0;144.152;144.276;1;-1;0;0;0;0;0;0;0;0;0;-1;0.00000000;0.00000000;0.00000000;0.00000000;0.00000000;0.00000000;0.00000000;
35022682;12.7;32.1;0;0;0;-75.6;0.1;0;-0.11;0.04;0;0;0.0124;0;0.1593;0.0006;69657;69717;315.004;0;89;0.014;0.01;35022664;0.0124;0;0.1593;0.0006;1.008;57.067;0;0.15;0;144.152;144.276;1;-1;0;0;0;0;0;0;0;0;0;-1;0.00000000;0.00000000;0.00000000;0.00000000;0.00000000;0.00000000;0.00000000;
35022706;12.7;32.1;0;0;0;-75.8;0.1;0;-0.11;0.04;0;0;0.0124;0;0.1593;0.0006;69657;69717;315;0;89;0.013;0.01;35022690;0.0124;0;0.1593;0.0006;1.008;57.067;0;0.11;0;144.152;144.276;1;-1;0;0;0;0;0;0;0;0;0;-1;0.00000000;0.00000000;0.00000000;0.00000000;0.00000000;0.00000000;0.00000000;
35022734;12.7;32.1;0;0;0;-75.6;0.11;0;-0.12;0.04;0;0;0.0124;0;0.1593;0.0006;69657;69717;315.018;0;89;0.015;0.011;35022710;0.0124;0;0.1593;0.0006;1.008;57.067;0;0.15;0;144.152;144.276;1;-1;0;0;0;0;0;0;0;0;0;-1;0.00000000;0.00000000;0.00000000;0.00000000;0.00000000;0.00000000;0.00000000;
35022747;12.7;32.1;0;0;0;-75.7;0.11;0;-0.12;0.04;0;0;0.0124;0;0.1593;0.0006;69657;69717;315;0;89;0.014;0.011;35022735;0.0124;0;0.1593;0.0006;1.008;57.067;0;-0.18;0;144.152;144.276;1;-1;0;0;0;0;0;0;0;0;0;-1;0.00000000;0.00000000;0.00000000;0.00000000;0.00000000;0.00000000;0.00000000;
35022774;12.7;32.1;0;0;0;-75.8;0.08;0;-0.1;0.03;0;0;0.0124;0;0.1593;0.0006;69657;69717;315.007;0;89;0.015;0.011;35022756;0.0124;0;0.1593;0.0006;1.008;57.067;0;-0.04;0;144.152;144.276;1;-1;0;0;0;0;0;0;0;0;0;-1;0.00000000;0.00000000;0.00000000;0.00000000;0.00000000;0.00000000;0.00000000;
35022802;12.7;32.1;0;0;0;-75.8;0.09;0;-0.1;0.03;0;0;0.0124;0;0.1593;0.0006;69657;69717;315;0;89;0.015;0.011;35022774;0.0124;0;0.1593;0.0006;1.008;57.067;0;0.16;0;144.152;144.276;1;-1;0;0;0;0;0;0;0;0;0;-1;0.00000000;0.00000000;0.00000000;0.00000000;0.00000000;0.00000000;0.00000000;
35022822;12.7;32.1;0;0;0;-75.9;0.1;0;-0.11;0.03;0;0;0.0124;0;0.1593;0.0006;69657;69717;315;0;89;0.014;0.01;35022802;0.0124;0;0.1593;0.0006;1.008;57.067;0;0.17;0;144.152;144.276;1;-1;0;0;0;0;0;0;0;0;0;-1;0.00000000;0.00000000;0.00000000;0.00000000;0.00000000;0.00000000;0.00000000;
35022848;12.7;32.1;0;0;0;-76;0.08;0;-0.1;0.02;0;0;0.0124;0;0.1593;0.0006;69657;69717;315;0;89;0.016;0.011;35022826;0.0124;0;0.1593;0.0006;1.008;57.067;0;0.07;0;144.152;144.276;1;-1;0;0;0;0;0;0;0;0;0;-1;0.00000000;0.00000000;0.00000000;0.00000000;0.00000000;0.00000000;0.00000000;
35022879;12.7;32.1;0;0;0;-76.2;0.11;0;-0.12;0.04;0;0;0.0124;0;0.1593;0.0006;69657;69717;315;0;89;0.014;0.01;35022851;0.0124;0;0.1593;0.0006;1.008;57.067;0;0.06;0;144.152;144.276;1;-1;0;0;0;0;0;0;0;0;0;-1;0.00000000;0.00000000;0.00000000;0.00000000;0.00000000;0.00000000;0.00000000;
35022903;12.7;32.1;0;0;0;-76;0.1;0;-0.11;0.04;0;0;0.0124;0;0.1593;0.0006;69657;69717;315;0;89;0.015;0.01;35022890;0.0124;0;0.1593;0.0006;1.008;57.067;0;0.08;0;144.152;144.276;1;-1;0;0;0;0;0;0;0;0;0;-1;0.00000000;0.00000000;0.00000000;0.00000000;0.00000000;0.00000000;0.00000000;
35022927;12.7;32.1;0;0;0;-76;0.1;0;-0.1;0.03;0;0;0.0124;0;0.1593;0.0006;69657;69717;315.013;0;89;0.015;0.012;35022903;0.0124;0;0.1593;0.0006;1.008;57.067;0;-0.12;0;144.152;144.276;1;-1;0;0;0;0;0;0;0;0;0;-1;0.00000000;0.00000000;0.00000000;0.00000000;0.00000000;0.00000000;0.00000000;
35022958;12.7;32.1;0;0;0;-75.7;0.09;0;-0.11;0.03;0;0;0.0124;0;0.1593;0.0006;69657;69717;315;0;89;0.013;0.01;35022931;0.0124;0;0.1593;0.0006;1.008;57.067;0;-0.27;0;144.152;144.276;1;-1;0;0;0;0;0;0;0;0;0;-1;0.00000000;0.00000000;0.00000000;0.00000000;0.00000000;0.00000000;0.00000000;
35022980;12.7;32.1;0;0;0;-76;0.08;0;-0.09;0.02;0;0;0.0124;0;0.1593;0.0006;69657;69717;315.012;0;89;0.015;0.011;35022962;0.0124;0;0.1593;0.0006;1.008;57.067;0;-0.06;0;144.152;144.276;1;-1;0;0;0;0;0;0;0;0;0;-1;0.00000000;0.00000000;0.00000000;0.00000000;0.00000000;0.00000000;0.00000000;
35023009;12.7;32.1;0;0;0;-75.9;0.09;0;-0.1;0.03;0;0;0.0124;0;0.1593;0.0006;69657;69717;315;0;89;0.016;0.011;35022990;0.0124;0;0.1593;0.0006;1.008;57.067;0;0.1;0;144.152;144.276;1;-1;0;0;0;0;0;0;0;0;0;-1;0.00000000;0.00000000;0.00000000;0.00000000;0.00000000;0.00000000;0.00000000;
35023034;12.7;32.1;0;0;0;-75.9;0.1;0;-0.11;0.04;0;0;0.0124;0;0.1593;0.0006;69657;69717;315.007;0;89;0.014;0.01;35023010;0.0124;0;0.1593;0.0006;1.008;57.067;0;0.09;0;144.152;144.276;1;-1;0;0;0;0;0;0;0;0;0;-1;0.00000000;0.00000000;0.00000000;0.00000000;0.00000000;0.00000000;0.00000000;
35023054;12.7;32.1;0;0;0;-75.7;0.1;0;-0.11;0.03;0;0;0.0124;0;0.1593;0.0006;69657;69717;315.009;0;89;0.014;0.01;35023035;0.0124;0;0.1593;0.0006;1.008;57.067;0;0.13;0;144.152;144.276;1;-1;0;0;0;0;0;0;0;0;0;-1;0.00000000;0.00000000;0.00000000;0.00000000;0.00000000;0.00000000;0.00000000;
35023101;12.7;32.1;0;0;0;-76.2;0.1;0;-0.11;0.04;0;0;0.0124;0;0.1593;0.0006;69657;69717;315.001;0;89;0.014;0.011;35023054;0.0124;0;0.1593;0.0006;1.008;57.067;0;0.12;0;144.152;144.276;1;-1;0;0;0;0;0;0;0;0;0;-1;0.00000000;0.00000000;0.00000000;0.00000000;0.00000000;0.00000000;0.00000000;
35023123;12.7;32.1;0;0;0;-76;0.1;0;-0.11;0.03;0;0;0.0124;0;0.1593;0.0006;69657;69717;315.011;0;89;0.014;0.01;35023107;0.0124;0;0.1593;0.0006;1.008;57.067;0;0.06;0;144.152;144.276;1;-1;0;0;0;0;0;0;0;0;0;-1;0.00000000;0.00000000;0.00000000;0.00000000;0.00000000;0.00000000;0.00000000;
35023143;12.7;32.1;0;0;0;-76.3;0.1;0;-0.11;0.03;0;0;0.0124;0;0.1593;0.0006;69657;69717;315;0;89;0.014;0.01;35023127;0.0124;0;0.1593;0.0006;1.008;57.067;0;-0.14;0;144.152;144.276;1;-1;0;0;0;0;0;0;0;0;0;-1;0.00000000;0.00000000;0.00000000;0.00000000;0.00000000;0.00000000;0.00000000;
35023164;12.7;32.1;0;0;0;-76.2;0.09;0;-0.1;0.03;0;0;0.0124;0;0.1593;0.0006;69657;69717;315.008;0;89;0.014;0.01;35023147;0.0124;0;0.1593;0.0006;1.008;57.067;0;-0.07;0;144.152;144.276;1;-1;0;0;0;0;0;0;0;0;0;-1;0.00000000;0.00000000;0.00000000;0.00000000;0.00000000;0.00000000;0.00000000;
35023188;12.7;32.1;0;0;0;-76;0.1;0;-0.11;0.04;0;0;0.0124;0;0.1593;0.0006;69657;69717;315;0;89;0.015;0.011;35023173;0.0124;0;0.1593;0.0006;1.008;57.067;0;0.1;0;144.152;144.276;1;-1;0;0;0;0;0;0;0;0;0;-1;0.00000000;0.00000000;0.00000000;0.00000000;0.00000000;0.00000000;0.00000000;
35023218;12.7;32.1;0;0;0;-75.9;0.08;0;-0.09;0.02;0;0;0.0124;0;0.1593;0.0006;69657;69717;315.001;0;89;0.015;0.011;35023193;0.0124;0;0.1593;0.0006;1.008;57.067;0;0.11;0;144.152;144.276;1;-1;0;0;0;0;0;0;0;0;0;-1;0.00000000;0.00000000;0.00000000;0.00000000;0.00000000;0.00000000;0.00000000;
35023240;12.7;32.1;0;0;0;-75.9;0.1;0;-0.11;0.03;0;0;0.0124;0;0.1593;0.0006;69657;69717;315.017;0;89;0.014;0.01;35023223;0.0124;0;0.1593;0.0006;1.008;57.067;0;0.09;0;144.152;144.276;1;-1;0;0;0;0;0;0;0;0;0;-1;0.00000000;0.00000000;0.00000000;0.00000000;0.00000000;0.00000000;0.00000000;
35023262;12.7;32.1;0;0;0;-75.6;0.11;0;-0.12;0.04;0;0;0.0124;0;0.1593;0.0006;69657;69717;315.005;0;89;0.014;0.01;35023243;0.0124;0;0.1593;0.0006;1.008;57.068;0;-0.02;0;144.152;144.276;1;-1;0;0;0;0;0;0;0;0;0;-1;0.00000000;0.00000000;0.00000000;0.00000000;0.00000000;0.00000000;0.00000000;
35023282;12.7;32.1;0;0;0;-75.4;0.11;0;-0.11;0.03;0;0;0.0124;0;0.1593;0.0006;69657;69717;315.005;0;89;0.015;0.011;35023265;0.0124;0;0.1593;0.0006;1.008;57.068;0;0.06;0;144.152;144.276;1;-1;0;0;0;0;0;0;0;0;0;-1;0.00000000;0.00000000;0.00000000;0.00000000;0.00000000;0.00000000;0.00000000;
35023305;12.7;32.1;0;0;0;-75.4;0.1;0;-0.1;0.03;0;0;0.0124;0;0.1593;0.0006;69657;69717;315;0;89;0.015;0.011;35023290;0.0124;0;0.1593;0.0006;1.008;57.068;0;0.12;0;144.152;144.276;1;-1;0;0;0;0;0;0;0;0;0;-1;0.00000000;0.00000000;0.00000000;0.00000000;0.00000000;0.00000000;0.00000000;
35023334;12.7;32.1;0;0;0;-75.5;0.09;0;-0.1;0.03;0;0;0.0124;0;0.1593;0.0006;69657;69717;315.007;0;89;0.015;0.011;35023309;0.0124;0;0.1593;0.0006;1.008;57.068;0;0.11;0;144.152;144.276;1;-1;0;0;0;0;0;0;0;0;0;-1;0.00000000;0.00000000;0.00000000;0.00000000;0.00000000;0.00000000;0.00000000;
35023354;12.7;32.1;0;0;0;-75.6;0.1;0;-0.12;0.03;0;0;0.0124;0;0.1593;0.0006;69657;69717;315.019;0;89;0.015;0.011;35023335;0.0124;0;0.1593;0.0006;1.008;57.068;0;0.1;0;144.152;144.276;1;-1;0;0;0;0;0;0;0;0;0;-1;0.00000000;0.00000000;0.00000000;0.00000000;0.00000000;0.00000000;0.00000000;
35023376;12.7;32.1;0;0;0;-75.6;0.11;0;-0.11;0.04;0;0;0.0124;0;0.1593;0.0006;69657;69717;315;0;89;0.015;0.011;35023354;0.0124;0;0.1593;0.0006;1.008;57.068;0;0.14;0;144.152;144.276;1;-1;0;0;0;0;0;0;0;0;0;-1;0.00000000;0.00000000;0.00000000;0.00000000;0.00000000;0.00000000;0.00000000;
35023401;12.7;32.1;0;0;0;-75.9;0.1;0;-0.11;0.04;0;0;0.0124;0;0.1593;0.0006;69657;69717;315;0;89;0.014;0.011;35023376;0.0124;0;0.1593;0.0006;1.008;57.068;0;0.07;0;144.152;144.276;1;-1;0;0;0;0;0;0;0;0;0;-1;0.00000000;0.00000000;0.00000000;0.00000000;0.00000000;0.00000000;0.00000000;
35023421;12.7;32.1;0;0;0;-75.9;0.09;0;-0.1;0.04;0;0;0.0124;0;0.1593;0.0006;69657;69717;315;0;89;0.014;0.01;35023401;0.0124;0;0.1593;0.0006;1.008;57.068;0;0.1;0;144.152;144.276;1;-1;0;0;0;0;0;0;0;0;0;-1;0.00000000;0.00000000;0.00000000;0.00000000;0.00000000;0.00000000;0.00000000;
35023444;12.7;32.1;0;0;0;-76;0.1;0;-0.11;0.04;0;0;0.0124;0;0.1593;0.0006;69657;69717;315.007;0;89;0.015;0.011;35023426;0.0124;0;0.1593;0.0006;1.008;57.068;0;0.17;0;144.152;144.276;1;-1;0;0;0;0;0;0;0;0;0;-1;0.00000000;0.00000000;0.00000000;0.00000000;0.00000000;0.00000000;0.00000000;
35023466;12.7;32.1;0;0;0;-75.8;0.09;0;-0.1;0.03;0;0;0.0124;0;0.1593;0.0006;69657;69717;315;0;89;0.015;0.011;35023447;0.0124;0;0.1593;0.0006;1.008;57.068;0;0.1;0;144.152;144.276;1;-1;0;0;0;0;0;0;0;0;0;-1;0.00000000;0.00000000;0.00000000;0.00000000;0.00000000;0.00000000;0.00000000;
35023494;12.7;32.1;0;0;0;-75.7;0.08;0;-0.1;0.02;0;0;0.0124;0;0.1593;0.0006;69657;69717;315.008;0;89;0.014;0.011;35023473;0.0124;0;0.1593;0.0006;1.008;57.068;0;0.13;0;144.152;144.276;1;-1;0;0;0;0;0;0;0;0;0;-1;0.00000000;0.00000000;0.00000000;0.00000000;0.00000000;0.00000000;0.00000000;
35023518;12.7;32.1;0;0;0;-76.1;0.11;0;-0.12;0.04;0;0;0.0124;0;0.1593;0.0006;69657;69717;315;0;89;0.015;0.011;35023494;0.0124;0;0.1593;0.0006;1.008;57.068;0;0.08;0;144.152;144.276;1;-1;0;0;0;0;0;0;0;0;0;-1;0.00000000;0.00000000;0.00000000;0.00000000;0.00000000;0.00000000;0.00000000;
35023539;12.7;32.1;0;0;0;-76.1;0.09;0;-0.1;0.03;0;0;0.0124;0;0.1593;0.0006;69657;69717;315;0;89;0.014;0.01;35023518;0.0124;0;0.1593;0.0006;1.008;57.068;0;0.11;0;144.152;144.276;1;-1;0;0;0;0;0;0;0;0;0;-1;0.00000000;0.00000000;0.00000000;0.00000000;0.00000000;0.00000000;0.00000000;
35023560;12.7;32.1;0;0;0;-76.4;0.11;0;-0.12;0.03;0;0;0.0124;0;0.1593;0.0006;69657;69717;315;0;89;0.015;0.011;35023543;0.0124;0;0.1593;0.0006;1.008;57.068;0;0.12;0;144.152;144.276;1;-1;0;0;0;0;0;0;0;0;0;-1;0.00000000;0.00000000;0.00000000;0.00000000;0.00000000;0.00000000;0.00000000;
35023582;12.7;32.1;0;0;0;-76.6;0.1;0;-0.11;0.03;0;0;0.0124;0;0.1593;0.0006;69657;69717;315.006;0;89;0.015;0.011;35023563;0.0124;0;0.1593;0.0006;1.008;57.068;0;0.08;0;144.152;144.276;1;-1;0;0;0;0;0;0;0;0;0;-1;0.00000000;0.00000000;0.00000000;0.00000000;0.00000000;0.00000000;0.00000000;
35023605;12.7;32.1;0;0;0;-76.4;0.09;0;-0.11;0.03;0;0;0.0124;0;0.1593;0.0006;69657;69717;315;0;89;0.015;0.011;35023590;0.0124;0;0.1593;0.0006;1.008;57.068;0;0.12;0;144.152;144.276;1;-1;0;0;0;0;0;0;0;0;0;-1;0.00000000;0.00000000;0.00000000;0.00000000;0.00000000;0.00000000;0.00000000;
35023635;12.7;32.1;0;0;0;-76.2;0.11;0;-0.12;0.04;0;0;0.0124;0;0.1593;0.0006;69657;69717;315;0;89;0.015;0.012;35023609;0.0124;0;0.1593;0.0006;1.008;57.068;0;0.04;0;144.152;144.276;1;-1;0;0;0;0;0;0;0;0;0;-1;0.00000000;0.00000000;0.00000000;0.00000000;0.00000000;0.00000000;0.00000000;
35023654;12.7;32.1;0;0;0;-76.3;0.11;0;-0.12;0.03;0;0;0.0124;0;0.1593;0.0006;69657;69717;315.004;0;89;0.015;0.011;35023635;0.0124;0;0.1593;0.0006;1.008;57.068;0;0.16;0;144.152;144.276;1;-1;0;0;0;0;0;0;0;0;0;-1;0.00000000;0.00000000;0.00000000;0.00000000;0.00000000;0.00000000;0.00000000;
35023666;12.7;32.1;0;0;0;-76.3;0.09;0;-0.11;0.03;0;0;0.0124;0;0.1593;0.0006;69657;69717;315;0;89;0.015;0.01;35023654;0.0124;0;0.1593;0.0006;1.008;57.068;0;-0.06;0;144.152;144.276;1;-1;0;0;0;0;0;0;0;0;0;-1;0.00000000;0.00000000;0.00000000;0.00000000;0.00000000;0.00000000;0.00000000;
35023695;12.7;32.1;0;0;0;-76.2;0.1;0;-0.11;0.03;0;0;0.0124;0;0.1593;0.0006;69657;69717;315.008;0;89;0.014;0.011;35023677;0.0124;0;0.1593;0.0006;1.008;57.068;0;0.03;0;144.152;144.276;1;-1;0;0;0;0;0;0;0;0;0;-1;0.00000000;0.00000000;0.00000000;0.00000000;0.00000000;0.00000000;0.00000000;
35023726;12.7;32.1;0;0;0;-76.1;0.1;0;-0.11;0.03;0;0;0.0124;0;0.1593;0.0006;69657;69717;315.002;0;89;0.014;0.011;35023695;0.0124;0;0.1593;0.0006;1.008;57.068;0;0.04;0;144.152;144.276;1;-1;0;0;0;0;0;0;0;0;0;-1;0.00000000;0.00000000;0.00000000;0.00000000;0.00000000;0.00000000;0.00000000;
35023738;12.7;32.1;0;0;0;-76;0.09;0;-0.1;0.03;0;0;0.0124;0;0.1593;0.0006;69657;69717;315.007;0;89;0.014;0.01;35023730;0.0124;0;0.1593;0.0006;1.008;57.068;0;0.12;0;144.152;144.276;1;-1;0;0;0;0;0;0;0;0;0;-1;0.00000000;0.00000000;0.00000000;0.00000000;0.00000000;0.00000000;0.00000000;
35023763;12.7;32.1;0;0;0;-76;0.11;0;-0.12;0.04;0;0;0.0124;0;0.1593;0.0006;69657;69717;315;0;89;0.015;0.012;35023744;0.0124;0;0.1593;0.0006;1.008;57.069;0;0.11;0;144.152;144.276;1;-1;0;0;0;0;0;0;0;0;0;-1;0.00000000;0.00000000;0.00000000;0.00000000;0.00000000;0.00000000;0.00000000;
35023824;12.7;32.1;0;0;0;-76.1;0.09;0;-0.1;0.03;0;0;0.0124;0;0.1593;0.0006;69657;69717;315;0;89;0.014;0.01;35023801;0.0124;0;0.1593;0.0006;1.008;57.069;0;0.12;0;144.152;144.276;1;-1;0;0;0;0;0;0;0;0;0;-1;0.00000000;0.00000000;0.00000000;0.00000000;0.00000000;0.00000000;0.00000000;
35023856;12.7;32.2;0;0;0;-75.6;0.09;0;-0.1;0.03;0;0;0.0124;0;0.1593;0.0006;69657;69717;315;0;89;0.015;0.011;35023828;0.0124;0;0.1593;0.0006;1.008;57.069;0;-0.08;0;144.152;144.276;1;-1;0;0;0;0;0;0;0;0;0;-1;0.00000000;0.00000000;0.00000000;0.00000000;0.00000000;0.00000000;0.00000000;
35023878;12.7;32.2;0;0;0;-75.8;0.1;0;-0.11;0.03;0;0;0.0124;0;0.1593;0.0006;69657;69717;315;0;89;0.014;0.01;35023861;0.0124;0;0.1593;0.0006;1.008;57.069;0;0.14;0;144.152;144.276;1;-1;0;0;0;0;0;0;0;0;0;-1;0.00000000;0.00000000;0.00000000;0.00000000;0.00000000;0.00000000;0.00000000;
35023898;12.7;32.1;0;0;0;-76;0.11;0;-0.12;0.04;0;0;0.0124;0;0.1593;0.0006;69657;69717;315.011;0;89;0.014;0.01;35023882;0.0124;0;0.1593;0.0006;1.008;57.069;0;0.11;0;144.152;144.276;1;-1;0;0;0;0;0;0;0;0;0;-1;0.00000000;0.00000000;0.00000000;0.00000000;0.00000000;0.00000000;0.00000000;
35023924;12.7;32.2;0;0;0;-76;0.11;0;-0.12;0.04;0;0;0.0124;0;0.1593;0.0006;69657;69717;315.004;0;89;0.015;0.01;35023906;0.0124;0;0.1593;0.0006;1.008;57.069;0;0.13;0;144.152;144.276;1;-1;0;0;0;0;0;0;0;0;0;-1;0.00000000;0.00000000;0.00000000;0.00000000;0.00000000;0.00000000;0.00000000;
35023952;12.7;32.2;0;0;0;-75.8;0.11;0;-0.12;0.04;0;0;0.0124;0;0.1593;0.0006;69657;69717;315.011;0;89;0.015;0.011;35023928;0.0124;0;0.1593;0.0006;1.008;57.069;0;0.19;0;144.152;144.276;1;-1;0;0;0;0;0;0;0;0;0;-1;0.00000000;0.00000000;0.00000000;0.00000000;0.00000000;0.00000000;0.00000000;
35023972;12.7;32.2;0;0;0;-75.6;0.09;0;-0.1;0.03;0;0;0.0124;0;0.1593;0.0006;69657;69717;315;0;89;0.015;0.011;35023953;0.0124;0;0.1593;0.0006;1.008;57.069;0;0.17;0;144.152;144.276;1;-1;0;0;0;0;0;0;0;0;0;-1;0.00000000;0.00000000;0.00000000;0.00000000;0.00000000;0.00000000;0.00000000;
35023994;12.7;32.1;0;0;0;-75.7;0.1;0;-0.11;0.03;0;0;0.0124;0;0.1593;0.0006;69657;69717;315;0;89;0.016;0.011;35023972;0.0124;0;0.1593;0.0006;1.008;57.069;0;0.13;0;144.152;144.276;1;-1;0;0;0;0;0;0;0;0;0;-1;0.00000000;0.00000000;0.00000000;0.00000000;0.00000000;0.00000000;0.00000000;
35024023;12.7;32.1;0;0;0;-76;0.11;0;-0.12;0.03;0;0;0.0124;0;0.1593;0.0006;69657;69717;315;0;89;0.014;0.01;35023994;0.0124;0;0.1593;0.0006;1.008;57.069;0;0.13;0;144.152;144.276;1;-1;0;0;0;0;0;0;0;0;0;-1;0.00000000;0.00000000;0.00000000;0.00000000;0.00000000;0.00000000;0.00000000;
35024033;12.7;32.1;0;0;0;-76.1;0.1;0;-0.09;0.03;0;0;0.0124;0;0.1593;0.0006;69657;69717;315.009;0;89;0.019;0.014;35024028;0.0124;0;0.1593;0.0006;1.008;57.069;0;0.01;0;144.152;144.276;1;-1;0;0;0;0;0;0;0;0;0;-1;0.00000000;0.00000000;0.00000000;0.00000000;0.00000000;0.00000000;0.00000000;
35024057;12.7;32.2;0;0;0;-76.3;0.09;0;-0.1;0.03;0;0;0.0124;0;0.1593;0.0006;69657;69717;315.004;0;89;0.013;0.01;35024040;0.0124;0;0.1593;0.0006;1.008;57.069;0;0.13;0;144.152;144.276;1;-1;0;0;0;0;0;0;0;0;0;-1;0.00000000;0.00000000;0.00000000;0.00000000;0.00000000;0.00000000;0.00000000;
35024078;12.7;32.2;0;0;0;-75.9;0.1;0;-0.11;0.04;0;0;0.0124;0;0.1593;0.0006;69657;69717;315.011;0;89;0.015;0.01;35024062;0.0124;0;0.1593;0.0006;1.008;57.069;0;0.12;0;144.152;144.276;1;-1;0;0;0;0;0;0;0;0;0;-1;0.00000000;0.00000000;0.00000000;0.00000000;0.00000000;0.00000000;0.00000000;
35024112;12.7;32.1;0;0;0;-75.7;0.1;0;-0.11;0.03;0;0;0.0124;0;0.1593;0.0006;69657;69717;315;0;89;0.014;0.011;35024081;0.0124;0;0.1593;0.0006;1.008;57.069;0;0.11;0;144.152;144.276;1;-1;0;0;0;0;0;0;0;0;0;-1;0.00000000;0.00000000;0.00000000;0.00000000;0.00000000;0.00000000;0.00000000;
35024133;12.7;32.2;0;0;0;-75.4;0.1;0;-0.11;0.04;0;0;0.0124;0;0.1593;0.0006;69657;69717;315;0;89;0.014;0.01;35024114;0.0124;0;0.1593;0.0006;1.008;57.069;0;0.11;0;144.152;144.276;1;-1;0;0;0;0;0;0;0;0;0;-1;0.00000000;0.00000000;0.00000000;0.00000000;0.00000000;0.00000000;0.00000000;
35024153;12.7;32.2;0;0;0;-75.4;0.11;0;-0.13;0.04;0;0;0.0124;0;0.1593;0.0006;69657;69717;315;0;89;0.014;0.01;35024135;0.0124;0;0.1593;0.0006;1.008;57.069;0;0.12;0;144.152;144.276;1;-1;0;0;0;0;0;0;0;0;0;-1;0.00000000;0.00000000;0.00000000;0.00000000;0.00000000;0.00000000;0.00000000;
35024175;12.7;32.2;0;0;0;-75.3;0.1;0;-0.11;0.03;0;0;0.0124;0;0.1593;0.0006;69657;69717;315.013;0;89;0.015;0.01;35024155;0.0124;0;0.1593;0.0006;1.008;57.069;0;0.13;0;144.152;144.276;1;-1;0;0;0;0;0;0;0;0;0;-1;0.00000000;0.00000000;0.00000000;0.00000000;0.00000000;0.00000000;0.00000000;
35024196;12.7;32.2;0;0;0;-75.5;0.1;0;-0.11;0.04;0;0;0.0124;0;0.1593;0.0006;69657;69717;315;0;89;0.015;0.011;35024177;0.0124;0;0.1593;0.0006;1.008;57.069;0;0.14;0;144.152;144.276;1;-1;0;0;0;0;0;0;0;0;0;-1;0.00000000;0.00000000;0.00000000;0.00000000;0.00000000;0.00000000;0.00000000;
35024216;12.7;32.2;0;0;0;-75.4;0.11;0;-0.12;0.03;0;0;0.0124;0;0.1593;0.0006;69657;69717;315;0;89;0.016;0.011;35024199;0.0124;0;0.1593;0.0006;1.008;57.069;0;0.07;0;144.152;144.276;1;-1;0;0;0;0;0;0;0;0;0;-1;0.00000000;0.00000000;0.00000000;0.00000000;0.00000000;0.00000000;0.00000000;
35024239;12.7;32.2;0;0;0;-75.6;0.11;0;-0.12;0.04;0;0;0.0124;0;0.1593;0.0006;69657;69717;315;0;89;0.016;0.012;35024218;0.0124;0;0.1593;0.0006;1.008;57.069;0;0.12;0;144.152;144.276;1;-1;0;0;0;0;0;0;0;0;0;-1;0.00000000;0.00000000;0.00000000;0.00000000;0.00000000;0.00000000;0.00000000;
35024258;12.7;32.2;0;0;0;-75.7;0.09;0;-0.11;0.03;0;0;0.0124;0;0.1593;0.0006;69657;69717;315.004;0;89;0.015;0.011;35024241;0.0124;0;0.1593;0.0006;1.008;57.069;0;0.14;0;144.152;144.276;1;-1;0;0;0;0;0;0;0;0;0;-1;0.00000000;0.00000000;0.00000000;0.00000000;0.00000000;0.00000000;0.00000000;
35024281;12.7;32.2;0;0;0;-75.4;0.09;0;-0.1;0.03;0;0;0.0124;0;0.1593;0.0006;69657;69717;315;0;89;0.015;0.011;35024260;0.0124;0;0.1593;0.0006;1.008;57.069;0;0.15;0;144.152;144.276;1;-1;0;0;0;0;0;0;0;0;0;-1;0.00000000;0.00000000;0.00000000;0.00000000;0.00000000;0.00000000;0.00000000;
35024362;12.7;32.2;0;0;0;-75.9;0.11;0;-0.11;0.04;0;0;0.0124;0;0.1593;0.0006;69657;69717;315.01;0;89;0.015;0.011;35024283;0.0124;0;0.1593;0.0006;1.008;57.069;0;0.12;0;144.152;144.276;1;-1;0;0;0;0;0;0;0;0;0;-1;0.00000000;0.00000000;0.00000000;0.00000000;0.00000000;0.00000000;0.00000000;
35024377;12.7;32.2;0;0;0;-76;0.07;0;-0.08;0.02;0;0;0.0124;0;0.1593;0.0006;69657;69717;315;0;89;0.014;0.01;35024364;0.0124;0;0.1593;0.0006;1.008;57.069;0;0.12;0;144.152;144.276;1;-1;0;0;0;0;0;0;0;0;0;-1;0.00000000;0.00000000;0.00000000;0.00000000;0.00000000;0.00000000;0.00000000;
35024398;12.7;32.2;0;0;0;-76;0.11;0;-0.13;0.04;0;0;0.0124;0;0.1593;0.0006;69657;69717;315;0;89;0.015;0.011;35024379;0.0124;0;0.1593;0.0006;1.008;57.069;0;0.15;0;144.152;144.276;1;-1;0;0;0;0;0;0;0;0;0;-1;0.00000000;0.00000000;0.00000000;0.00000000;0.00000000;0.00000000;0.00000000;
35024417;12.7;32.2;0;0;0;-75.8;0.1;0;-0.11;0.04;0;0;0.0124;0;0.1593;0.0006;69657;69717;315.006;0;89;0.015;0.011;35024401;0.0124;0;0.1593;0.0006;1.008;57.069;0;0.1;0;144.152;144.276;1;-1;0;0;0;0;0;0;0;0;0;-1;0.00000000;0.00000000;0.00000000;0.00000000;0.00000000;0.00000000;0.00000000;
35024438;12.7;32.2;0;0;0;-75.7;0.11;0;-0.13;0.04;0;0;0.0124;0;0.1593;0.0006;69657;69717;315;0;89;0.015;0.011;35024419;0.0124;0;0.1593;0.0006;1.008;57.069;0;0.16;0;144.152;144.276;1;-1;0;0;0;0;0;0;0;0;0;-1;0.00000000;0.00000000;0.00000000;0.00000000;0.00000000;0.00000000;0.00000000;
35024459;12.7;32.2;0;0;0;-75.7;0.1;0;-0.11;0.03;0;0;0.0124;0;0.1593;0.0006;69657;69717;315;0;89;0.015;0.011;35024440;0.0124;0;0.1593;0.0006;1.008;57.069;0;0.1;0;144.152;144.276;1;-1;0;0;0;0;0;0;0;0;0;-1;0.00000000;0.00000000;0.00000000;0.00000000;0.00000000;0.00000000;0.00000000;
35024481;12.7;32.2;0;0;0;-75.8;0.11;0;-0.11;0.03;0;0;0.0124;0;0.1593;0.0006;69657;69717;315;0;89;0.016;0.011;35024461;0.0124;0;0.1593;0.0006;1.008;57.069;0;-0.14;0;144.152;144.276;1;-1;0;0;0;0;0;0;0;0;0;-1;0.00000000;0.00000000;0.00000000;0.00000000;0.00000000;0.00000000;0.00000000;
35024500;12.7;32.2;0;0;0;-75.6;0.1;0;-0.11;0.03;0;0;0.0124;0;0.1593;0.0006;69657;69717;315.023;0;89;0.014;0.01;35024483;0.0124;0;0.1593;0.0006;1.008;57.069;0;0.2;0;144.152;144.276;1;-1;0;0;0;0;0;0;0;0;0;-1;0.00000000;0.00000000;0.00000000;0.00000000;0.00000000;0.00000000;0.00000000;
35024523;12.7;32.2;0;0;0;-75.5;0.09;0;-0.1;0.03;0;0;0.0124;0;0.1593;0.0006;69657;69717;315.001;0;89;0.014;0.011;35024503;0.0124;0;0.1593;0.0006;1.008;57.069;0;0.2;0;144.152;144.276;1;-1;0;0;0;0;0;0;0;0;0;-1;0.00000000;0.00000000;0.00000000;0.00000000;0.00000000;0.00000000;0.00000000;
35024544;12.7;32.2;0;0;0;-75.4;0.11;0;-0.11;0.05;0;0;0.0124;0;0.1593;0.0006;69657;69717;315.019;0;89;0.014;0.01;35024533;0.0124;0;0.1593;0.0006;1.008;57.069;0;0.07;0;144.152;144.276;1;-1;0;0;0;0;0;0;0;0;0;-1;0.00000000;0.00000000;0.00000000;0.00000000;0.00000000;0.00000000;0.00000000;
35024564;12.7;32.2;0;0;0;-75.5;0.1;0;-0.11;0.03;0;0;0.0124;0;0.1593;0.0006;69657;69717;315.019;0;89;0.014;0.011;35024547;0.0124;0;0.1593;0.0006;1.008;57.069;0;0.19;0;144.152;144.276;1;-1;0;0;0;0;0;0;0;0;0;-1;0.00000000;0.00000000;0.00000000;0.00000000;0.00000000;0.00000000;0.00000000;
35024585;12.7;32.2;0;0;0;-75.5;0.1;0;-0.11;0.03;0;0;0.0124;0;0.1593;0.0006;69657;69717;315.019;0;89;0.014;0.01;35024566;0.0124;0;0.1593;0.0006;1.008;57.069;0;-0.04;0;144.152;144.276;1;-1;0;0;0;0;0;0;0;0;0;-1;0.00000000;0.00000000;0.00000000;0.00000000;0.00000000;0.00000000;0.00000000;
35024606;12.7;32.2;0;0;0;-75.6;0.08;0;-0.1;0.03;0;0;0.0124;0;0.1593;0.0006;69657;69717;315.001;0;89;0.014;0.01;35024587;0.0124;0;0.1593;0.0006;1.008;57.069;0;0.04;0;144.152;144.276;1;-1;0;0;0;0;0;0;0;0;0;-1;0.00000000;0.00000000;0.00000000;0.00000000;0.00000000;0.00000000;0.00000000;
35024627;12.7;32.2;0;0;0;-75.8;0.11;0;-0.12;0.04;0;0;0.0124;0;0.1593;0.0006;69657;69717;315;0;89;0.014;0.011;35024607;0.0124;0;0.1593;0.0006;1.008;57.069;0;0.07;0;144.152;144.276;1;-1;0;0;0;0;0;0;0;0;0;-1;0.00000000;0.00000000;0.00000000;0.00000000;0.00000000;0.00000000;0.00000000;
35024646;12.7;32.2;0;0;0;-75.7;0.1;0;-0.11;0.03;0;0;0.0124;0;0.1593;0.0006;69657;69717;315.007;0;89;0.014;0.011;35024629;0.0124;0;0.1593;0.0006;1.008;57.069;0;-0.13;0;144.152;144.276;1;-1;0;0;0;0;0;0;0;0;0;-1;0.00000000;0.00000000;0.00000000;0.00000000;0.00000000;0.00000000;0.00000000;
35024668;12.7;32.2;0;0;0;-75.6;0.1;0;-0.11;0.03;0;0;0.0124;0;0.1593;0.0006;69657;69717;315.001;0;89;0.015;0.011;35024648;0.0124;0;0.1593;0.0006;1.008;57.069;0;0.11;0;144.152;144.276;1;-1;0;0;0;0;0;0;0;0;0;-1;0.00000000;0.00000000;0.00000000;0.00000000;0.00000000;0.00000000;0.00000000;
35024688;12.7;32.2;0;0;0;-75.5;0.09;0;-0.09;0.03;0;0;0.0124;0;0.1593;0.0006;69657;69717;315;0;89;0.015;0.011;35024671;0.0124;0;0.1593;0.0006;1.008;57.069;0;0.05;0;144.152;144.276;1;-1;0;0;0;0;0;0;0;0;0;-1;0.00000000;0.00000000;0.00000000;0.00000000;0.00000000;0.00000000;0.00000000;
35024708;12.7;32.2;0;0;0;-75.6;0.11;0;-0.12;0.04;0;0;0.0124;0;0.1593;0.0006;69657;69717;315;0;89;0.014;0.011;35024689;0.0124;0;0.1593;0.0006;1.008;57.069;0;0.15;0;144.152;144.276;1;-1;0;0;0;0;0;0;0;0;0;-1;0.00000000;0.00000000;0.00000000;0.00000000;0.00000000;0.00000000;0.00000000;
35024728;12.7;32.2;0;0;0;-75.5;0.1;0;-0.11;0.04;0;0;0.0124;0;0.1593;0.0006;69657;69717;315;0;89;0.015;0.011;35024711;0.0124;0;0.1593;0.0006;1.008;57.069;0;0.13;0;144.152;144.276;1;-1;0;0;0;0;0;0;0;0;0;-1;0.00000000;0.00000000;0.00000000;0.00000000;0.00000000;0.00000000;0.00000000;
35024751;12.7;32.2;0;0;0;-75.8;0.1;0;-0.11;0.03;0;0;0.0124;0;0.1593;0.0006;69657;69717;315;0;89;0.015;0.011;35024730;0.0124;0;0.1593;0.0006;1.008;57.069;0;0.19;0;144.152;144.276;1;-1;0;0;0;0;0;0;0;0;0;-1;0.00000000;0.00000000;0.00000000;0.00000000;0.00000000;0.00000000;0.00000000;
35024777;12.7;32.2;0;0;0;-75.6;0.1;0;-0.11;0.03;0;0;0.0124;0;0.1593;0.0006;69657;69717;315.011;0;89;0.015;0.012;35024752;0.0124;0;0.1593;0.0006;1.008;57.069;0;0.12;0;144.152;144.276;1;-1;0;0;0;0;0;0;0;0;0;-1;0.00000000;0.00000000;0.00000000;0.00000000;0.00000000;0.00000000;0.00000000;
35024801;12.7;32.2;0;0;0;-75.7;0.1;0;-0.11;0.03;0;0;0.0124;0;0.1593;0.0006;69657;69717;315;0;89;0.014;0.01;35024777;0.0124;0;0.1593;0.0006;1.008;57.069;0;0.13;0;144.152;144.276;1;-1;0;0;0;0;0;0;0;0;0;-1;0.00000000;0.00000000;0.00000000;0.00000000;0.00000000;0.00000000;0.00000000;
35024821;12.7;32.2;0;0;0;-75.7;0.09;0;-0.11;0.03;0;0;0.0124;0;0.1593;0.0006;69657;69717;315.009;0;89;0.014;0.01;35024804;0.0124;0;0.1593;0.0006;1.008;57.069;0;0.13;0;144.152;144.276;1;-1;0;0;0;0;0;0;0;0;0;-1;0.00000000;0.00000000;0.00000000;0.00000000;0.00000000;0.00000000;0.00000000;
35024842;12.7;32.2;0;0;0;-75.8;0.1;0;-0.11;0.03;0;0;0.0124;0;0.1593;0.0006;69657;69717;315.019;0;89;0.014;0.01;35024823;0.0124;0;0.1593;0.0006;1.008;57.069;0;0.1;0;144.152;144.276;1;-1;0;0;0;0;0;0;0;0;0;-1;0.00000000;0.00000000;0.00000000;0.00000000;0.00000000;0.00000000;0.00000000;
35024865;12.7;32.2;0;0;0;-75.8;0.1;0;-0.11;0.04;0;0;0.0124;0;0.1593;0.0006;69657;69717;315.016;0;89;0.015;0.011;35024845;0.0124;0;0.1593;0.0006;1.008;57.069;0;0.12;0;144.152;144.276;1;-1;0;0;0;0;0;0;0;0;0;-1;0.00000000;0.00000000;0.00000000;0.00000000;0.00000000;0.00000000;0.00000000;
35024884;12.7;32.2;0;0;0;-75.8;0.1;0;-0.11;0.04;0;0;0.0124;0;0.1593;0.0006;69657;69717;315.007;0;89;0.015;0.011;35024866;0.0124;0;0.1593;0.0006;1.008;57.069;0;0.1;0;144.152;144.276;1;-1;0;0;0;0;0;0;0;0;0;-1;0.00000000;0.00000000;0.00000000;0.00000000;0.00000000;0.00000000;0.00000000;
35024906;12.7;32.2;0;0;0;-75.7;0.1;0;-0.11;0.04;0;0;0.0124;0;0.1593;0.0006;69657;69717;315;0;89;0.015;0.011;35024887;0.0124;0;0.1593;0.0006;1.008;57.069;0;0.08;0;144.152;144.276;1;-1;0;0;0;0;0;0;0;0;0;-1;0.00000000;0.00000000;0.00000000;0.00000000;0.00000000;0.00000000;0.00000000;
35024927;12.7;32.2;0;0;0;-75.9;0.09;0;-0.1;0.03;0;0;0.0124;0;0.1593;0.0006;69657;69717;315.001;0;89;0.015;0.012;35024909;0.0124;0;0.1593;0.0006;1.008;57.069;0;0.07;0;144.152;144.276;1;-1;0;0;0;0;0;0;0;0;0;-1;0.00000000;0.00000000;0.00000000;0.00000000;0.00000000;0.00000000;0.00000000;
35024949;12.7;32.2;0;0;0;-76;0.09;0;-0.1;0.03;0;0;0.0124;0;0.1593;0.0006;69657;69717;315;0;89;0.015;0.011;35024931;0.0124;0;0.1593;0.0006;1.008;57.069;0;0.13;0;144.152;144.276;1;-1;0;0;0;0;0;0;0;0;0;-1;0.00000000;0.00000000;0.00000000;0.00000000;0.00000000;0.00000000;0.00000000;
35024969;12.7;32.2;0;0;0;-75.9;0.09;0;-0.1;0.03;0;0;0.0124;0;0.1593;0.0006;69657;69717;315.006;0;89;0.014;0.01;35024952;0.0124;0;0.1593;0.0006;1.008;57.069;0;0.11;0;144.152;144.276;1;-1;0;0;0;0;0;0;0;0;0;-1;0.00000000;0.00000000;0.00000000;0.00000000;0.00000000;0.00000000;0.00000000;
35024991;12.7;32.2;0;0;0;-75.8;0.11;0;-0.11;0.03;0;0;0.0124;0;0.1593;0.0006;69657;69717;315;0;89;0.015;0.011;35024976;0.0124;0;0.1593;0.0006;1.008;57.069;0;0.13;0;144.152;144.276;1;-1;0;0;0;0;0;0;0;0;0;-1;0.00000000;0.00000000;0.00000000;0.00000000;0.00000000;0.00000000;0.00000000;
35025017;12.7;32.2;0;0;0;-75.9;0.11;0;-0.13;0.03;0;0;0.0124;0;0.1593;0.0006;69657;69717;315.022;0;89;0.014;0.01;35024992;0.0124;0;0.1593;0.0006;1.008;57.069;0;0.13;0;144.152;144.276;1;-1;0;0;0;0;0;0;0;0;0;-1;0.00000000;0.00000000;0.00000000;0.00000000;0.00000000;0.00000000;0.00000000;
35025036;12.7;32.2;0;0;0;-75.8;0.12;0;-0.13;0.05;0;0;0.0124;0;0.1593;0.0006;69657;69717;314.998;0;89;0.014;0.01;35025017;0.0124;0;0.1593;0.0006;1.008;57.069;0;0.19;0;144.152;144.276;1;-1;0;0;0;0;0;0;0;0;0;-1;0.00000000;0.00000000;0.00000000;0.00000000;0.00000000;0.00000000;0.00000000;
35025060;12.7;32.2;0;0;0;-75.8;0.11;0;-0.12;0.04;0;0;0.0124;0;0.1593;0.0006;69657;69717;315;0;89;0.014;0.01;35025037;0.0124;0;0.1593;0.0006;1.008;57.069;0;0.07;0;144.152;144.276;1;-1;0;0;0;0;0;0;0;0;0;-1;0.00000000;0.00000000;0.00000000;0.00000000;0.00000000;0.00000000;0.00000000;
35025082;12.7;32.2;0;0;0;-75.9;0.08;0;-0.1;0.03;0;0;0.0124;0;0.1593;0.0006;69657;69717;315.001;0;89;0.015;0.011;35025064;0.0124;0;0.1593;0.0006;1.008;57.069;0;0.07;0;144.152;144.276;1;-1;0;0;0;0;0;0;0;0;0;-1;0.00000000;0.00000000;0.00000000;0.00000000;0.00000000;0.00000000;0.00000000;
35025098;12.7;32.2;0;0;0;-76;0.1;0;-0.11;0.04;0;0;0.0124;0;0.1593;0.0006;69657;69717;315;0;89;0.014;0.01;35025085;0.0124;0;0.1593;0.0006;1.008;57.069;0;0.04;0;144.152;144.276;1;-1;0;0;0;0;0;0;0;0;0;-1;0.00000000;0.00000000;0.00000000;0.00000000;0.00000000;0.00000000;0.00000000;
35025120;12.7;32.2;0;0;0;-75.8;0.1;0;-0.1;0.03;0;0;0.0124;0;0.1593;0.0006;69657;69717;315;0;89;0.015;0.011;35025100;0.0124;0;0.1593;0.0006;1.008;57.069;0;0.18;0;144.152;144.276;1;-1;0;0;0;0;0;0;0;0;0;-1;0.00000000;0.00000000;0.00000000;0.00000000;0.00000000;0.00000000;0.00000000;
35025142;12.7;32.2;0;0;0;-75.8;0.09;0;-0.1;0.03;0;0;0.0124;0;0.1593;0.0006;69657;69717;315.007;0;89;0.015;0.012;35025123;0.0124;0;0.1593;0.0006;1.008;57.069;0;0.07;0;144.152;144.276;1;-1;0;0;0;0;0;0;0;0;0;-1;0.00000000;0.00000000;0.00000000;0.00000000;0.00000000;0.00000000;0.00000000;
35025162;12.7;32.2;0;0;0;-75.7;0.09;0;-0.1;0.03;0;0;0.0124;0;0.1593;0.0006;69657;69717;315;0;89;0.015;0.011;35025145;0.0124;0;0.1593;0.0006;1.008;57.069;0;0.13;0;144.152;144.276;1;-1;0;0;0;0;0;0;0;0;0;-1;0.00000000;0.00000000;0.00000000;0.00000000;0.00000000;0.00000000;0.00000000;
35025184;12.7;32.2;0;0;0;-75.9;0.1;0;-0.11;0.03;0;0;0.0124;0;0.1593;0.0006;69657;69717;315;0;89;0.015;0.011;35025165;0.0124;0;0.1593;0.0006;1.008;57.069;0;0.09;0;144.152;144.276;1;-1;0;0;0;0;0;0;0;0;0;-1;0.00000000;0.00000000;0.00000000;0.00000000;0.00000000;0.00000000;0.00000000;
35025206;12.7;32.2;0;0;0;-75.8;0.09;0;-0.1;0.03;0;0;0.0124;0;0.1593;0.0006;69657;69717;315;0;89;0.015;0.011;35025186;0.0124;0;0.1593;0.0006;1.008;57.069;0;0.08;0;144.152;144.276;1;-1;0;0;0;0;0;0;0;0;0;-1;0.00000000;0.00000000;0.00000000;0.00000000;0.00000000;0.00000000;0.00000000;
35025224;12.7;32.2;0;0;0;-75.7;0.1;0;-0.11;0.04;0;0;0.0124;0;0.1593;0.0006;69657;69717;315.006;0;89;0.014;0.01;35025208;0.0124;0;0.1593;0.0006;1.008;57.069;0;0.05;0;144.152;144.276;1;-1;0;0;0;0;0;0;0;0;0;-1;0.00000000;0.00000000;0.00000000;0.00000000;0.00000000;0.00000000;0.00000000;
35025246;12.7;32.2;0;0;0;-76;0.09;0;-0.1;0.03;0;0;0.0124;0;0.1593;0.0006;69657;69717;315;0;89;0.015;0.011;35025227;0.0124;0;0.1593;0.0006;1.008;57.069;0;0;0;144.152;144.276;1;-1;0;0;0;0;0;0;0;0;0;-1;0.00000000;0.00000000;0.00000000;0.00000000;0.00000000;0.00000000;0.00000000;
35025267;12.7;32.2;0;0;0;-75.8;0.1;0;-0.11;0.04;0;0;0.0124;0;0.1593;0.0006;69657;69717;315;0;89;0.014;0.01;35025248;0.0124;0;0.1593;0.0006;1.008;57.069;0;0.13;0;144.152;144.276;1;-1;0;0;0;0;0;0;0;0;0;-1;0.00000000;0.00000000;0.00000000;0.00000000;0.00000000;0.00000000;0.00000000;
35025288;12.7;32.2;0;0;0;-75.8;0.09;0;-0.1;0.03;0;0;0.0124;0;0.1593;0.0006;69657;69717;315;0;89;0.014;0.01;35025271;0.0124;0;0.1593;0.0006;1.008;57.069;0;0.14;0;144.152;144.276;1;-1;0;0;0;0;0;0;0;0;0;-1;0.00000000;0.00000000;0.00000000;0.00000000;0.00000000;0.00000000;0.00000000;
35025308;12.7;32.2;0;0;0;-75.6;0.09;0;-0.1;0.03;0;0;0.0124;0;0.1593;0.0006;69657;69717;315.01;0;89;0.014;0.011;35025291;0.0124;0;0.1593;0.0006;1.008;57.069;0;0.06;0;144.152;144.276;1;-1;0;0;0;0;0;0;0;0;0;-1;0.00000000;0.00000000;0.00000000;0.00000000;0.00000000;0.00000000;0.00000000;
35025331;12.7;32.2;0;0;0;-75.7;0.1;0;-0.11;0.03;0;0;0.0124;0;0.1593;0.0006;69657;69717;315.004;0;89;0.014;0.01;35025311;0.0124;0;0.1593;0.0006;1.008;57.069;0;0.13;0;144.152;144.276;1;-1;0;0;0;0;0;0;0;0;0;-1;0.00000000;0.00000000;0.00000000;0.00000000;0.00000000;0.00000000;0.00000000;
35025353;12.7;32.2;0;0;0;-75.8;0.1;0;-0.12;0.04;0;0;0.0124;0;0.1593;0.0006;69657;69717;315;0;89;0.015;0.011;35025334;0.0124;0;0.1593;0.0006;1.008;57.069;0;0.08;0;144.152;144.276;1;-1;0;0;0;0;0;0;0;0;0;-1;0.00000000;0.00000000;0.00000000;0.00000000;0.00000000;0.00000000;0.00000000;
35025374;12.7;32.2;0;0;0;-75.9;0.09;0;-0.1;0.03;0;0;0.0124;0;0.1593;0.0006;69657;69717;315.005;0;89;0.015;0.011;35025355;0.0124;0;0.1593;0.0006;1.008;57.07;0;0.04;0;144.152;144.276;1;-1;0;0;0;0;0;0;0;0;0;-1;0.00000000;0.00000000;0.00000000;0.00000000;0.00000000;0.00000000;0.00000000;
35025398;12.7;32.2;0;0;0;-75.8;0.11;0;-0.11;0.03;0;0;0.0124;0;0.1593;0.0006;69657;69717;315;0;89;0.016;0.011;35025374;0.0124;0;0.1593;0.0006;1.008;57.07;0;0.19;0;144.152;144.276;1;-1;0;0;0;0;0;0;0;0;0;-1;0.00000000;0.00000000;0.00000000;0.00000000;0.00000000;0.00000000;0.00000000;
35025421;12.7;32.2;0;0;0;-75.7;0.12;0;-0.12;0.04;0;0;0.0124;0;0.1593;0.0006;69657;69717;315.012;0;89;0.015;0.012;35025398;0.0124;0;0.1593;0.0006;1.008;57.07;0;0.13;0;144.152;144.276;1;-1;0;0;0;0;0;0;0;0;0;-1;0.00000000;0.00000000;0.00000000;0.00000000;0.00000000;0.00000000;0.00000000;
35025442;12.7;32.2;0;0;0;-75.4;0.09;0;-0.1;0.03;0;0;0.0124;0;0.1593;0.0006;69657;69717;315;0;89;0.014;0.01;35025424;0.0124;0;0.1593;0.0006;1.008;57.07;0;0.1;0;144.152;144.276;1;-1;0;0;0;0;0;0;0;0;0;-1;0.00000000;0.00000000;0.00000000;0.00000000;0.00000000;0.00000000;0.00000000;
35025466;12.7;32.3;0;0;0;-75.4;0.09;0;-0.11;0.03;0;0;0.0124;0;0.1593;0.0006;69657;69717;315.014;0;89;0.013;0.01;35025444;0.0124;0;0.1593;0.0006;1.008;57.07;0;0.09;0;144.152;144.276;1;-1;0;0;0;0;0;0;0;0;0;-1;0.00000000;0.00000000;0.00000000;0.00000000;0.00000000;0.00000000;0.00000000;
35025488;12.7;32.3;0;0;0;-75.3;0.09;0;-0.1;0.03;0;0;0.0124;0;0.1593;0.0006;69657;69717;315.004;0;89;0.015;0.011;35025468;0.0124;0;0.1593;0.0006;1.008;57.07;0;0.03;0;144.152;144.276;1;-1;0;0;0;0;0;0;0;0;0;-1;0.00000000;0.00000000;0.00000000;0.00000000;0.00000000;0.00000000;0.00000000;
35025509;12.7;32.2;0;0;0;-75.3;0.13;0;-0.13;0.05;0;0;0.0124;0;0.1593;0.0006;69657;69717;315.002;0;89;0.015;0.011;35025491;0.0124;0;0.1593;0.0006;1.008;57.07;0;0.14;0;144.152;144.276;1;-1;0;0;0;0;0;0;0;0;0;-1;0.00000000;0.00000000;0.00000000;0.00000000;0.00000000;0.00000000;0.00000000;
35025527;12.7;32.2;0;0;0;-75.4;0.1;0;-0.11;0.04;0;0;0.0124;0;0.1593;0.0006;69657;69717;315;0;89;0.015;0.011;35025511;0.0124;0;0.1593;0.0006;1.008;57.07;0;0.19;0;144.152;144.276;1;-1;0;0;0;0;0;0;0;0;0;-1;0.00000000;0.00000000;0.00000000;0.00000000;0.00000000;0.00000000;0.00000000;
35025550;12.7;32.3;0;0;0;-75.7;0.08;0;-0.09;0.02;0;0;0.0124;0;0.1593;0.0006;69657;69717;315;0;89;0.015;0.012;35025530;0.0124;0;0.1593;0.0006;1.008;57.07;0;0.16;0;144.152;144.276;1;-1;0;0;0;0;0;0;0;0;0;-1;0.00000000;0.00000000;0.00000000;0.00000000;0.00000000;0.00000000;0.00000000;
35025572;12.7;32.2;0;0;0;-75.7;0.1;0;-0.1;0.02;0;0;0.0124;0;0.1593;0.0006;69657;69717;315;0;89;0.015;0.011;35025553;0.0124;0;0.1593;0.0006;1.008;57.07;0;0.09;0;144.152;144.276;1;-1;0;0;0;0;0;0;0;0;0;-1;0.00000000;0.00000000;0.00000000;0.00000000;0.00000000;0.00000000;0.00000000;
35025601;12.7;32.3;0;0;0;-76;0.09;0;-0.1;0.02;0;0;0.0124;0;0.1593;0.0006;69657;69717;315.022;0;89;0.015;0.011;35025575;0.0124;0;0.1593;0.0006;1.008;57.07;0;0.1;0;144.152;144.276;1;-1;0;0;0;0;0;0;0;0;0;-1;0.00000000;0.00000000;0.00000000;0.00000000;0.00000000;0.00000000;0.00000000;
35025622;12.7;32.2;0;0;0;-76.2;0.09;0;-0.11;0.03;0;0;0.0124;0;0.1593;0.0006;69657;69717;315.009;0;89;0.014;0.01;35025603;0.0124;0;0.1593;0.0006;1.008;57.07;0;0.08;0;144.152;144.276;1;-1;0;0;0;0;0;0;0;0;0;-1;0.00000000;0.00000000;0.00000000;0.00000000;0.00000000;0.00000000;0.00000000;
35025643;12.7;32.3;0;0;0;-76.1;0.09;0;-0.11;0.03;0;0;0.0124;0;0.1593;0.0006;69657;69717;315.009;0;89;0.014;0.01;35025625;0.0124;0;0.1593;0.0006;1.008;57.07;0;0.06;0;144.152;144.276;1;-1;0;0;0;0;0;0;0;0;0;-1;0.00000000;0.00000000;0.00000000;0.00000000;0.00000000;0.00000000;0.00000000;
35025665;12.7;32.3;0;0;0;-75.9;0.11;0;-0.12;0.04;0;0;0.0124;0;0.1593;0.0006;69657;69717;315;0;89;0.014;0.011;35025646;0.0124;0;0.1593;0.0006;1.008;57.07;0;0.2;0;144.152;144.276;1;-1;0;0;0;0;0;0;0;0;0;-1;0.00000000;0.00000000;0.00000000;0.00000000;0.00000000;0.00000000;0.00000000;
35025685;12.7;32.3;0;0;0;-75.9;0.1;0;-0.11;0.04;0;0;0.0124;0;0.1593;0.0006;69657;69717;315;0;89;0.015;0.011;35025667;0.0124;0;0.1593;0.0006;1.008;57.07;0;0.2;0;144.152;144.276;1;-1;0;0;0;0;0;0;0;0;0;-1;0.00000000;0.00000000;0.00000000;0.00000000;0.00000000;0.00000000;0.00000000;
35025706;12.7;32.3;0;0;0;-76.1;0.11;0;-0.11;0.03;0;0;0.0124;0;0.1593;0.0006;69657;69717;315;0;89;0.015;0.011;35025688;0.0124;0;0.1593;0.0006;1.008;57.07;0;0.12;0;144.152;144.276;1;-1;0;0;0;0;0;0;0;0;0;-1;0.00000000;0.00000000;0.00000000;0.00000000;0.00000000;0.00000000;0.00000000;
35025728;12.7;32.3;0;0;0;-75.8;0.11;0;-0.12;0.04;0;0;0.0124;0;0.1593;0.0006;69657;69717;315.007;0;89;0.015;0.011;35025709;0.0124;0;0.1593;0.0006;1.008;57.07;0;0.15;0;144.152;144.276;1;-1;0;0;0;0;0;0;0;0;0;-1;0.00000000;0.00000000;0.00000000;0.00000000;0.00000000;0.00000000;0.00000000;
35025748;12.7;32.3;0;0;0;-75.9;0.09;0;-0.1;0.03;0;0;0.0124;0;0.1593;0.0006;69657;69717;315.01;0;89;0.015;0.011;35025730;0.0124;0;0.1593;0.0006;1.008;57.07;0;0.12;0;144.152;144.276;1;-1;0;0;0;0;0;0;0;0;0;-1;0.00000000;0.00000000;0.00000000;0.00000000;0.00000000;0.00000000;0.00000000;
35025771;12.7;32.3;0;0;0;-75.7;0.1;0;-0.11;0.03;0;0;0.0124;0;0.1593;0.0006;69657;69717;315;0;89;0.015;0.011;35025750;0.0124;0;0.1593;0.0006;1.008;57.07;0;0.12;0;144.152;144.276;1;-1;0;0;0;0;0;0;0;0;0;-1;0.00000000;0.00000000;0.00000000;0.00000000;0.00000000;0.00000000;0.00000000;
35025799;12.7;32.3;0;0;0;-75.8;0.1;0;-0.1;0.03;0;0;0.0124;0;0.1593;0.0006;69657;69717;315.006;0;89;0.015;0.011;35025773;0.0124;0;0.1593;0.0006;1.008;57.07;0;0.13;0;144.152;144.276;1;-1;0;0;0;0;0;0;0;0;0;-1;0.00000000;0.00000000;0.00000000;0.00000000;0.00000000;0.00000000;0.00000000;
35025816;12.7;32.3;0;0;0;-75.8;0.11;0;-0.12;0.04;0;0;0.0124;0;0.1593;0.0006;69657;69717;315;0;89;0.014;0.011;35025800;0.0124;0;0.1593;0.0006;1.008;57.07;0;0.18;0;144.152;144.276;1;-1;0;0;0;0;0;0;0;0;0;-1;0.00000000;0.00000000;0.00000000;0.00000000;0.00000000;0.00000000;0.00000000;
35025837;12.7;32.3;0;0;0;-75.7;0.11;0;-0.11;0.03;0;0;0.0124;0;0.1593;0.0006;69657;69717;315;0;89;0.015;0.011;35025817;0.0124;0;0.1593;0.0006;1.008;57.07;0;0.09;0;144.152;144.276;1;-1;0;0;0;0;0;0;0;0;0;-1;0.00000000;0.00000000;0.00000000;0.00000000;0.00000000;0.00000000;0.00000000;
